[
  {
    "name": "Lindsey Acton",
    "company": "",
    "address": "P.O. Box 420991",
    "city": "San Diego",
    "state": "CA",
    "zip": "92142",
    "phone": "",
    "email": "",
    "lat": 32.77961,
    "lng": -117.13547
  },
  {
    "name": "Meredith Adams",
    "company": "",
    "address": "4142 Adams Ave",
    "city": "San Diego",
    "state": "CA",
    "zip": "92116",
    "phone": "(520) 850-6021",
    "email": "meredith@adamsfiduciaryservices.com",
    "lat": 32.7668,
    "lng": -117.12089
  },
  {
    "name": "Therese Adams",
    "company": "",
    "address": "661 5th St",
    "city": "Lincoln",
    "state": "CA",
    "zip": "95648",
    "phone": "(916) 409-2330",
    "email": "adams@tadfiduciary.com",
    "lat": 38.94544,
    "lng": -121.27133
  },
  {
    "name": "Sandy Aldrich",
    "company": "",
    "address": "1800 Main St",
    "city": "Saint Helena",
    "state": "CA",
    "zip": "94574",
    "phone": "",
    "email": "",
    "lat": 38.54035,
    "lng": -122.43353
  },
  {
    "name": "Patricia Alexander",
    "company": "",
    "address": "1210 E Green St",
    "city": "Pasadena",
    "state": "CA",
    "zip": "91106",
    "phone": "(626) 622-8000",
    "email": "palexander@privatetrustees.com",
    "lat": 34.13829,
    "lng": -118.13233
  },
  {
    "name": "Paul Allen",
    "company": "",
    "address": "18685 Main St",
    "city": "Huntington Beach",
    "state": "CA",
    "zip": "92648",
    "phone": "(310) 938-1170",
    "email": "PaulAllenTrustee@gmail.com",
    "lat": 33.68262,
    "lng": -118.00616
  },
  {
    "name": "Annalisa Alvarado",
    "company": "",
    "address": "PO Box 162816",
    "city": "Sacramento",
    "state": "CA",
    "zip": "95816",
    "phone": "(916) 905-0510",
    "email": "alvaradofiduciaryserv@outlook.com",
    "lat": 38.57207,
    "lng": -121.4694
  },
  {
    "name": "Michael Alves",
    "company": "",
    "address": "19528 Ventura Blvd #482",
    "city": "Tarzana",
    "state": "CA",
    "zip": "91356",
    "phone": "",
    "email": "",
    "lat": 34.14899,
    "lng": -118.54971
  },
  {
    "name": "Laine Amaral",
    "company": "",
    "address": "367 S Baywood Ave",
    "city": "San Jose",
    "state": "CA",
    "zip": "95128",
    "phone": "",
    "email": "",
    "lat": 37.31568,
    "lng": -121.93532
  },
  {
    "name": "Joan Ambrosio",
    "company": "",
    "address": "2055 Lombard St",
    "city": "San Francisco",
    "state": "CA",
    "zip": "94123",
    "phone": "(415) 424-1050",
    "email": "AmbrosioFiduciaryServices@gmail.com",
    "lat": 37.80059,
    "lng": -122.43768
  },
  {
    "name": "Ryan Andersen",
    "company": "",
    "address": "P.O. Box 32103",
    "city": "San Jose",
    "state": "CA",
    "zip": "95132",
    "phone": "",
    "email": "",
    "lat": 37.42548,
    "lng": -121.77166
  },
  {
    "name": "Debra Anderson",
    "company": "",
    "address": "P.O. Box 1025",
    "city": "Boyes Hot Springs",
    "state": "CA",
    "zip": "95416",
    "phone": "",
    "email": "",
    "lat": 38.89376,
    "lng": -123.07267
  },
  {
    "name": "REBECCA ANDERSON",
    "company": "",
    "address": "79544 MORNING GLORY COURT",
    "city": "LA QUINTA",
    "state": "CA",
    "zip": "92253",
    "phone": "(951) 961-1817",
    "email": "DTYLIESMOM@GMAIL.COM",
    "lat": 33.68628,
    "lng": -116.27547
  },
  {
    "name": "David Andrade",
    "company": "",
    "address": "1270 W 10th St",
    "city": "San Pedro",
    "state": "CA",
    "zip": "90731",
    "phone": "(310) 344-4249",
    "email": "Harley1818@gmail.com",
    "lat": 33.74348,
    "lng": -118.28665
  },
  {
    "name": "Jennifer Andres",
    "company": "",
    "address": "PO Box 1502",
    "city": "Rocklin",
    "state": "CA",
    "zip": "95677",
    "phone": "",
    "email": "jenni@swingstrat.com",
    "lat": 38.79619,
    "lng": -121.23936
  },
  {
    "name": "Joyce Anthony",
    "company": "",
    "address": "P.O. Box 783",
    "city": "Silverado",
    "state": "CA",
    "zip": "92676",
    "phone": "",
    "email": "",
    "lat": 33.74243,
    "lng": -117.64125
  },
  {
    "name": "Livia Argano",
    "company": "",
    "address": "6920 Santa Teresa Blvd",
    "city": "San Jose",
    "state": "CA",
    "zip": "95119",
    "phone": "(408) 802-7569",
    "email": "largano@gmail.com",
    "lat": 37.22431,
    "lng": -121.78641
  },
  {
    "name": "Denise Armstead",
    "company": "",
    "address": "PO Box 22",
    "city": "Saint Helena",
    "state": "CA",
    "zip": "94574",
    "phone": "",
    "email": "denise@armstead.com",
    "lat": 38.54035,
    "lng": -122.43353
  },
  {
    "name": "Gene Armstead",
    "company": "",
    "address": "PO Box 22",
    "city": "Saint Helena",
    "state": "CA",
    "zip": "94574",
    "phone": "",
    "email": "gene@armstead.com",
    "lat": 38.54035,
    "lng": -122.43353
  },
  {
    "name": "Tracy Arreygue",
    "company": "",
    "address": "24409 Park St",
    "city": "Torrance",
    "state": "CA",
    "zip": "90505",
    "phone": "(714) 457-8246",
    "email": "Tracy@Stonefids.com",
    "lat": 33.81246,
    "lng": -118.34269
  },
  {
    "name": "Linda Atkinson",
    "company": "",
    "address": "4858 West Pico Bld Unit #353",
    "city": "Los Angeles",
    "state": "CA",
    "zip": "90019",
    "phone": "",
    "email": "",
    "lat": 34.04827,
    "lng": -118.33817
  },
  {
    "name": "Miriam Attias",
    "company": "",
    "address": "961 Old Quarry Rd S",
    "city": "Larkspur",
    "state": "CA",
    "zip": "94939",
    "phone": "(415) 828-7431",
    "email": "miriam@attiasfiduciary.com",
    "lat": 37.93912,
    "lng": -122.52822
  },
  {
    "name": "Patricia Atwood",
    "company": "",
    "address": "714 C Street #205",
    "city": "San Rafael",
    "state": "CA",
    "zip": "94901",
    "phone": "",
    "email": "",
    "lat": 37.96895,
    "lng": -122.50116
  },
  {
    "name": "Connis Aust",
    "company": "",
    "address": "PO Box 1492",
    "city": "Santa Rosa",
    "state": "CA",
    "zip": "95402",
    "phone": "(707) 478-8532",
    "email": "connie@austfiduciary.com",
    "lat": 38.89376,
    "lng": -123.07267
  },
  {
    "name": "Marion Austin",
    "company": "",
    "address": "172 Monte Vista Ave Unit A",
    "city": "Costa Mesa",
    "state": "CA",
    "zip": "92627",
    "phone": "",
    "email": "",
    "lat": 33.64755,
    "lng": -117.91995
  },
  {
    "name": "Leslie Autry",
    "company": "",
    "address": "PO Box 1876",
    "city": "Lakeside",
    "state": "CA",
    "zip": "92040",
    "phone": "(619) 820-5672",
    "email": "autryfiduciary@gmail.com",
    "lat": 32.90903,
    "lng": -116.88137
  },
  {
    "name": "Jacob Averett",
    "company": "",
    "address": "3200 Highland Ave Ste B4-2",
    "city": "National City",
    "state": "CA",
    "zip": "91950",
    "phone": "",
    "email": "",
    "lat": 32.6678,
    "lng": -117.08694
  },
  {
    "name": "Joanna Averett",
    "company": "",
    "address": "1752 E Lugonia Ave",
    "city": "Redlands",
    "state": "CA",
    "zip": "92374",
    "phone": "(909) 240-7871",
    "email": "joanna@profidca.com",
    "lat": 34.06263,
    "lng": -117.16668
  },
  {
    "name": "Steven Baer",
    "company": "",
    "address": "1055 Wilshire Blvd Ste 1710",
    "city": "Los Angeles",
    "state": "CA",
    "zip": "90017",
    "phone": "",
    "email": "",
    "lat": 34.05089,
    "lng": -118.26319
  },
  {
    "name": "Susan Baer",
    "company": "",
    "address": "19201 Highway 12",
    "city": "Sonoma",
    "state": "CA",
    "zip": "95476",
    "phone": "(415) 717-2753",
    "email": "susan@baerfiduciary.com",
    "lat": 38.25014,
    "lng": -122.45911
  },
  {
    "name": "Amy Baird",
    "company": "",
    "address": "820 Park Row Pmb 690",
    "city": "Salinas",
    "state": "CA",
    "zip": "93901",
    "phone": "",
    "email": "",
    "lat": 36.64408,
    "lng": -121.63448
  },
  {
    "name": "Ada Baker",
    "company": "",
    "address": "12526 High Bluff Dr Ste 360",
    "city": "San Diego",
    "state": "CA",
    "zip": "92130",
    "phone": "",
    "email": "",
    "lat": 32.9582,
    "lng": -117.19494
  },
  {
    "name": "Anna Ballesteros",
    "company": "",
    "address": "3300 Coach Ln",
    "city": "Cameron Park",
    "state": "CA",
    "zip": "95682",
    "phone": "(530) 409-1107",
    "email": "edcbfs@gmail.com",
    "lat": 38.62864,
    "lng": -120.96466
  },
  {
    "name": "John Balquist",
    "company": "",
    "address": "4200 Park Blvd",
    "city": "Oakland",
    "state": "CA",
    "zip": "94602",
    "phone": "(510) 428-2410",
    "email": "john@turnstone-associates.com",
    "lat": 37.80334,
    "lng": -122.20737
  },
  {
    "name": "Lincoln Banks",
    "company": "",
    "address": "8270 La Mesa Blvd",
    "city": "La Mesa",
    "state": "CA",
    "zip": "91942",
    "phone": "(619) 698-6789",
    "email": "lincoln@banksandbanks.com",
    "lat": 32.77756,
    "lng": -117.02314
  },
  {
    "name": "Linda Banta",
    "company": "",
    "address": "574 Wildcat Canyon Rd",
    "city": "Berkeley",
    "state": "CA",
    "zip": "94708",
    "phone": "(510) 526-6465",
    "email": "lindambanta@comcast.net",
    "lat": 37.90209,
    "lng": -122.26347
  },
  {
    "name": "Susan Barineau",
    "company": "",
    "address": "500 Cathedral Dr Unit 2553",
    "city": "Aptos",
    "state": "CA",
    "zip": "95001",
    "phone": "",
    "email": "",
    "lat": 37.08486,
    "lng": -121.85947
  },
  {
    "name": "Mariya Barnyak",
    "company": "",
    "address": "2059 Camden Ave #344",
    "city": "San Jose",
    "state": "CA",
    "zip": "95124",
    "phone": "",
    "email": "",
    "lat": 37.24938,
    "lng": -121.92069
  },
  {
    "name": "RICH BARSUMIAN",
    "company": "",
    "address": "6080 Center Dr",
    "city": "Los Angeles",
    "state": "CA",
    "zip": "90045",
    "phone": "(424) 261-1917",
    "email": "info@barsumian.com",
    "lat": 33.95638,
    "lng": -118.40444
  },
  {
    "name": "Laura Bassett",
    "company": "",
    "address": "2115 Grandview St",
    "city": "Oceanside",
    "state": "CA",
    "zip": "92054",
    "phone": "(760) 583-0851",
    "email": "laurabassett50@gmail.com",
    "lat": 33.29085,
    "lng": -117.45008
  },
  {
    "name": "Susan Baukus",
    "company": "",
    "address": "7474 N Figueroa St #125",
    "city": "Los Angeles",
    "state": "CA",
    "zip": "90041",
    "phone": "",
    "email": "",
    "lat": 34.1339,
    "lng": -118.20925
  },
  {
    "name": "Emelie Bautista",
    "company": "",
    "address": "2213 Grant St",
    "city": "Berkeley",
    "state": "CA",
    "zip": "94703",
    "phone": "(510) 332-6824",
    "email": "joann@trustbba.com",
    "lat": 37.86585,
    "lng": -122.27569
  },
  {
    "name": "Krystal Jane Bautista",
    "company": "",
    "address": "3701 Sacramento St #464",
    "city": "San Francisco",
    "state": "CA",
    "zip": "94118",
    "phone": "",
    "email": "",
    "lat": 37.77799,
    "lng": -122.4573
  },
  {
    "name": "LEO Bautista",
    "company": "",
    "address": "2213 Grant St",
    "city": "Berkeley",
    "state": "CA",
    "zip": "94703",
    "phone": "(510) 332-6826",
    "email": "leo@trustbba.com",
    "lat": 37.86585,
    "lng": -122.27569
  },
  {
    "name": "Bradley Baxter",
    "company": "",
    "address": "8405 Menkar Rd",
    "city": "San Diego",
    "state": "CA",
    "zip": "92126",
    "phone": "",
    "email": "",
    "lat": 32.89997,
    "lng": -117.14239
  },
  {
    "name": "Stacy Baxter",
    "company": "",
    "address": "10755 Scripps Poway Pkwy",
    "city": "San Diego",
    "state": "CA",
    "zip": "92131",
    "phone": "(858) 227-3030",
    "email": "stacy@baxterfiduciary.com",
    "lat": 32.90582,
    "lng": -117.07224
  },
  {
    "name": "Randall Beckman",
    "company": "",
    "address": "28081 Marguerite Pkwy",
    "city": "Mission Viejo",
    "state": "CA",
    "zip": "92690",
    "phone": "(949) 415-4448",
    "email": "randy@ldfin.com",
    "lat": 33.62795,
    "lng": -117.78124
  },
  {
    "name": "Paul Bednarski",
    "company": "",
    "address": "P.O. Box 1018",
    "city": "Windsor",
    "state": "CA",
    "zip": "95492",
    "phone": "",
    "email": "",
    "lat": 38.52617,
    "lng": -122.80818
  },
  {
    "name": "Thomas Behr",
    "company": "",
    "address": "27890 Clinton Keith Road",
    "city": "Murrieta",
    "state": "CA",
    "zip": "92562",
    "phone": "(951) 249-9778",
    "email": "tom@tombehrlaw.com",
    "lat": 33.55488,
    "lng": -117.26969
  },
  {
    "name": "Helen Bellamy",
    "company": "",
    "address": "1097 B St",
    "city": "Hayward",
    "state": "CA",
    "zip": "94541",
    "phone": "(510) 940-8399",
    "email": "helen@pf-eb.com",
    "lat": 37.67659,
    "lng": -122.08864
  },
  {
    "name": "Marc Belluomini",
    "company": "",
    "address": "825 College Blvd",
    "city": "Oceanside",
    "state": "CA",
    "zip": "92057",
    "phone": "",
    "email": "",
    "lat": 33.25027,
    "lng": -117.28123
  },
  {
    "name": "Laura Benintend",
    "company": "",
    "address": "PO Box 230985",
    "city": "Encinitas",
    "state": "CA",
    "zip": "92023",
    "phone": "(760) 452-0904",
    "email": "laurabfiduciary@gmail.com",
    "lat": 33.11754,
    "lng": -117.07694
  },
  {
    "name": "Susan Bennett",
    "company": "",
    "address": "14384 Highland Valley Rd",
    "city": "Escondido",
    "state": "CA",
    "zip": "92025",
    "phone": "(858) 722-4489",
    "email": "bennettfiduciary@gmail.com",
    "lat": 33.08509,
    "lng": -117.01434
  },
  {
    "name": "Jennifer Benson",
    "company": "",
    "address": "PO Box 32571",
    "city": "San Jose",
    "state": "CA",
    "zip": "95152",
    "phone": "(408) 489-5135",
    "email": "fowle1234@comcast.net",
    "lat": 37.31077,
    "lng": -121.85066
  },
  {
    "name": "Noah Benton",
    "company": "",
    "address": "P O Box 300187",
    "city": "Escondido",
    "state": "CA",
    "zip": "92030",
    "phone": "",
    "email": "",
    "lat": 33.11754,
    "lng": -117.07694
  },
  {
    "name": "David Beringer",
    "company": "",
    "address": "527 S Lake Ave",
    "city": "Pasadena",
    "state": "CA",
    "zip": "91101",
    "phone": "(626) 325-6510",
    "email": "dberinger@tbgtax.com",
    "lat": 34.14892,
    "lng": -118.13862
  },
  {
    "name": "David Berrent",
    "company": "",
    "address": "5820 Wilshire Blvd",
    "city": "Los Angeles",
    "state": "CA",
    "zip": "90036",
    "phone": "(310) 739-0500",
    "email": "david@paismontgomery.com",
    "lat": 34.06864,
    "lng": -118.35033
  },
  {
    "name": "Marilyn Bessey",
    "company": "",
    "address": "4030 South Land Park Dr.",
    "city": "Sacramento",
    "state": "CA",
    "zip": "95822",
    "phone": "(916) 930-9900",
    "email": "marilyn.bessey@efmt.com",
    "lat": 38.51422,
    "lng": -121.50029
  },
  {
    "name": "Matthew Bickel",
    "company": "",
    "address": "22996 El Toro Rd #102",
    "city": "Lake Forest",
    "state": "CA",
    "zip": "92630",
    "phone": "",
    "email": "",
    "lat": 33.64068,
    "lng": -117.68568
  },
  {
    "name": "James Billingsley",
    "company": "",
    "address": "295 E Poppyfields Dr",
    "city": "Altadena",
    "state": "CA",
    "zip": "91001",
    "phone": "",
    "email": "",
    "lat": 34.19652,
    "lng": -118.14402
  },
  {
    "name": "James Bird",
    "company": "",
    "address": "2437 Old Eureka Way",
    "city": "Redding",
    "state": "CA",
    "zip": "96001",
    "phone": "",
    "email": "james.bird@jmbirdpf.com",
    "lat": 40.63243,
    "lng": -122.46927
  },
  {
    "name": "Dennis Black",
    "company": "",
    "address": "PO Box 1561",
    "city": "Hemet",
    "state": "CA",
    "zip": "92546",
    "phone": "(949) 677-5390",
    "email": "dblack-pf@wildstarcs.com",
    "lat": 33.75909,
    "lng": -117.16661
  },
  {
    "name": "Pamela Blattner",
    "company": "",
    "address": "18034 Ventura Blvd",
    "city": "Encino",
    "state": "CA",
    "zip": "91316",
    "phone": "(818) 926-0984",
    "email": "pam@blattnerfs.com",
    "lat": 34.15695,
    "lng": -118.515
  },
  {
    "name": "Cynthia Block",
    "company": "",
    "address": "4025 Rosabell St",
    "city": "Los Angeles",
    "state": "CA",
    "zip": "90066",
    "phone": "(310) 954-0811",
    "email": "cynthia@pomfiduciary.com",
    "lat": 33.99096,
    "lng": -118.42377
  },
  {
    "name": "Barbara Blosser",
    "company": "",
    "address": "16931 Mount Gale Circle",
    "city": "Fountain Valley",
    "state": "CA",
    "zip": "92708",
    "phone": "",
    "email": "",
    "lat": 33.72145,
    "lng": -117.94434
  },
  {
    "name": "Kelly Blumer",
    "company": "",
    "address": "640 Masonic Way",
    "city": "Belmont",
    "state": "CA",
    "zip": "94002",
    "phone": "(650) 209-0252",
    "email": "kelly@bbfiduciaryservices.com",
    "lat": 37.51469,
    "lng": -122.29128
  },
  {
    "name": "Kristin Boaz",
    "company": "",
    "address": "249 E. Ocean Blvd.",
    "city": "Long Beach",
    "state": "CA",
    "zip": "90802",
    "phone": "(562) 435-0018",
    "email": "kristin@mccuefs.com",
    "lat": 33.76278,
    "lng": -118.20172
  },
  {
    "name": "Roger Boaz",
    "company": "",
    "address": "14850 Highway 4",
    "city": "Discovery Bay",
    "state": "CA",
    "zip": "94505",
    "phone": "(925) 413-3646",
    "email": "Roger@roarca.org",
    "lat": 37.86664,
    "lng": -121.5815
  },
  {
    "name": "Norine Boehmer",
    "company": "",
    "address": "PO Box 351540",
    "city": "Los Angeles",
    "state": "CA",
    "zip": "90035",
    "phone": "(310) 246-9055",
    "email": "norine@nbfids.com",
    "lat": 34.05381,
    "lng": -118.38605
  },
  {
    "name": "Barbara Boghossian",
    "company": "",
    "address": "PO Box 10817",
    "city": "Glendale",
    "state": "CA",
    "zip": "91209",
    "phone": "(818) 524-8888",
    "email": "barbara@bzdfiduciary.com",
    "lat": 34.1674,
    "lng": -118.25269
  },
  {
    "name": "Catherine Bohlman",
    "company": "",
    "address": "PO Box 7272",
    "city": "San Diego",
    "state": "CA",
    "zip": "92167",
    "phone": "(619) 808-5333",
    "email": "cbohlman@live.com",
    "lat": 32.77961,
    "lng": -117.13547
  },
  {
    "name": "Beverly Boise-Cossart",
    "company": "",
    "address": "1752 E Lugonia Ave Ste 117-300",
    "city": "Redlands",
    "state": "CA",
    "zip": "92374",
    "phone": "",
    "email": "",
    "lat": 34.06263,
    "lng": -117.16668
  },
  {
    "name": "Megan Boling",
    "company": "",
    "address": "318 Ave I #54",
    "city": "Redondo Beach",
    "state": "CA",
    "zip": "90277",
    "phone": "",
    "email": "",
    "lat": 33.82782,
    "lng": -118.38439
  },
  {
    "name": "Tulin Bologlu-Melton",
    "company": "",
    "address": "P.O. Box 687",
    "city": "Livermore",
    "state": "CA",
    "zip": "94551",
    "phone": "",
    "email": "",
    "lat": 37.76388,
    "lng": -121.78528
  },
  {
    "name": "Judith Bolton",
    "company": "",
    "address": "P.O. Box 111387",
    "city": "Campbell",
    "state": "CA",
    "zip": "95011",
    "phone": "",
    "email": "",
    "lat": 37.08486,
    "lng": -121.85947
  },
  {
    "name": "Antoinette Bordeaux",
    "company": "",
    "address": "301 Forest Ave",
    "city": "Laguna Beach",
    "state": "CA",
    "zip": "92651",
    "phone": "(949) 306-8852",
    "email": "bordeauxsolutions@msn.com",
    "lat": 33.55419,
    "lng": -117.77459
  },
  {
    "name": "Louisa Bosshardt",
    "company": "",
    "address": "PO Box 1114",
    "city": "Arroyo Grande",
    "state": "CA",
    "zip": "93421",
    "phone": "(805) 305-1082",
    "email": "louisabosshardt@gmail.com",
    "lat": 35.20628,
    "lng": -120.56593
  },
  {
    "name": "Beverly Bourbon",
    "company": "",
    "address": "3043 Meridian Ave",
    "city": "San Jose",
    "state": "CA",
    "zip": "95124",
    "phone": "",
    "email": "bev@willowglenfiduciary.com",
    "lat": 37.24938,
    "lng": -121.92069
  },
  {
    "name": "Daniel Bowe",
    "company": "",
    "address": "PO Box 4131",
    "city": "Palm Springs",
    "state": "CA",
    "zip": "92263",
    "phone": "(760) 883-0733",
    "email": "dpbowe@gmail.com",
    "lat": 33.60946,
    "lng": -115.90416
  },
  {
    "name": "Lindsay Bowman",
    "company": "",
    "address": "425 Fairgate Rd.",
    "city": "Sacramento",
    "state": "CA",
    "zip": "95825",
    "phone": "(916) 446-5555",
    "email": "lbowman@cmyservices.net",
    "lat": 38.58714,
    "lng": -121.40332
  },
  {
    "name": "Sheila Bradford",
    "company": "",
    "address": "350 2nd St",
    "city": "Los Altos",
    "state": "CA",
    "zip": "94022",
    "phone": "(650) 383-5313",
    "email": "sheila@primefiduciary.com",
    "lat": 37.35955,
    "lng": -122.13306
  },
  {
    "name": "Leah Bradle",
    "company": "",
    "address": "1990 North California Blvd 8th Floor",
    "city": "Walnut Creek",
    "state": "CA",
    "zip": "94596",
    "phone": "",
    "email": "",
    "lat": 37.89281,
    "lng": -122.04094
  },
  {
    "name": "Timothy Breen",
    "company": "",
    "address": "73450 country club dr",
    "city": "palm desert",
    "state": "CA",
    "zip": "92260",
    "phone": "(415) 846-1922",
    "email": "tpbreenfiduciary@comcast.net",
    "lat": 33.70699,
    "lng": -116.39186
  },
  {
    "name": "Danielle Brinkman",
    "company": "",
    "address": "23046 Avenida De La Carlota",
    "city": "Laguna Hills",
    "state": "CA",
    "zip": "92653",
    "phone": "(949) 647-5000",
    "email": "admin@IntegrityProTrust.com",
    "lat": 33.59722,
    "lng": -117.71045
  },
  {
    "name": "Bev Brito",
    "company": "",
    "address": "1702 Daybreak Pl",
    "city": "Escondido",
    "state": "CA",
    "zip": "92027",
    "phone": "(760) 505-5699",
    "email": "boognbr@cox.net",
    "lat": 33.13171,
    "lng": -117.00284
  },
  {
    "name": "Beverly Brito",
    "company": "",
    "address": "122-A E Foothill Blvd #217",
    "city": "Arcadia",
    "state": "CA",
    "zip": "91006",
    "phone": "",
    "email": "",
    "lat": 34.1262,
    "lng": -118.01935
  },
  {
    "name": "Jessica Britt",
    "company": "",
    "address": "PO Box 2103",
    "city": "Menlo Park",
    "state": "CA",
    "zip": "94026",
    "phone": "(650) 257-7026",
    "email": "jmbritt@live.com",
    "lat": 37.46667,
    "lng": -122.26536
  },
  {
    "name": "Laura Brockwehl",
    "company": "",
    "address": "3701 Sacramento St",
    "city": "San Francisco",
    "state": "CA",
    "zip": "94118",
    "phone": "(415) 297-2337",
    "email": "laurabrockwehl@yahoo.com",
    "lat": 37.77799,
    "lng": -122.4573
  },
  {
    "name": "Janette Brooks",
    "company": "",
    "address": "952 School St",
    "city": "Napa",
    "state": "CA",
    "zip": "94559",
    "phone": "(707) 531-3623",
    "email": "janette@d4fiduciary.com",
    "lat": 38.25255,
    "lng": -122.30011
  },
  {
    "name": "Susan Brooksbank",
    "company": "",
    "address": "PO Box 1299",
    "city": "Cupertino",
    "state": "CA",
    "zip": "95015",
    "phone": "(408) 904-8139",
    "email": "susan@brooksbankfiduciary.com",
    "lat": 37.08486,
    "lng": -121.85947
  },
  {
    "name": "Robert Brower",
    "company": "",
    "address": "600 W Broadway",
    "city": "San Diego",
    "state": "CA",
    "zip": "92101",
    "phone": "(800) 821-4492 x4777",
    "email": "robert.brower@ubs.com",
    "lat": 32.71989,
    "lng": -117.17163
  },
  {
    "name": "Angela Brown",
    "company": "",
    "address": "1443 E Washington Blvd #644",
    "city": "Pasadena",
    "state": "CA",
    "zip": "91104",
    "phone": "",
    "email": "",
    "lat": 34.17053,
    "lng": -118.123
  },
  {
    "name": "Eugene Brown",
    "company": "",
    "address": "1104 Sunset Dr",
    "city": "Healdsburg",
    "state": "CA",
    "zip": "95448",
    "phone": "",
    "email": "",
    "lat": 38.64353,
    "lng": -122.85348
  },
  {
    "name": "Gene Brown",
    "company": "",
    "address": "1732 Aviation Blvd",
    "city": "Redondo Beach",
    "state": "CA",
    "zip": "90278",
    "phone": "(310) 933-4723",
    "email": "geneb@bedrockfiduciaries.com",
    "lat": 33.86862,
    "lng": -118.37107
  },
  {
    "name": "Keenan Brown",
    "company": "",
    "address": "335 E Albertoni St",
    "city": "Carson",
    "state": "CA",
    "zip": "90746",
    "phone": "(866) 324-5350",
    "email": "keenanbrown@brownmanagement.net",
    "lat": 33.86688,
    "lng": -118.25976
  },
  {
    "name": "Michael Brumbaugh",
    "company": "",
    "address": "15700 Winchester Blvd",
    "city": "Los Gatos",
    "state": "CA",
    "zip": "95030",
    "phone": "",
    "email": "",
    "lat": 37.22321,
    "lng": -121.97315
  },
  {
    "name": "Mike Brumbaugh",
    "company": "",
    "address": "PO Box 3100",
    "city": "Fair Oaks",
    "state": "CA",
    "zip": "95628",
    "phone": "(916) 417-8737",
    "email": "",
    "lat": 38.65654,
    "lng": -121.25873
  },
  {
    "name": "Ronda Brunson",
    "company": "",
    "address": "P.O. Box 14277",
    "city": "Santa Rosa",
    "state": "CA",
    "zip": "95402",
    "phone": "",
    "email": "",
    "lat": 38.89376,
    "lng": -123.07267
  },
  {
    "name": "David Buehler",
    "company": "",
    "address": "5080 Lakeville Highway",
    "city": "Petaluma",
    "state": "CA",
    "zip": "94954",
    "phone": "",
    "email": "",
    "lat": 38.20763,
    "lng": -122.52821
  },
  {
    "name": "David Bullard",
    "company": "",
    "address": "PO Box 67276",
    "city": "Scotts Valley",
    "state": "CA",
    "zip": "95067",
    "phone": "(831) 607-2100",
    "email": "david@dbfiduciary.com",
    "lat": 37.08486,
    "lng": -121.85947
  },
  {
    "name": "Bonnie Burdett",
    "company": "",
    "address": "350 2nd St",
    "city": "Los Altos",
    "state": "CA",
    "zip": "94022",
    "phone": "(650) 383-5313",
    "email": "bonnie@primefiduciary.com",
    "lat": 37.35955,
    "lng": -122.13306
  },
  {
    "name": "Michelle Burkart",
    "company": "",
    "address": "2534 State St",
    "city": "San Diego",
    "state": "CA",
    "zip": "92101",
    "phone": "(619) 516-8130",
    "email": "michelle@thinkresolution.com",
    "lat": 32.71989,
    "lng": -117.17163
  },
  {
    "name": "Maureen Burt",
    "company": "",
    "address": "5348 Carroll Canyon Rd Ste 200",
    "city": "San Diego",
    "state": "CA",
    "zip": "92121",
    "phone": "",
    "email": "",
    "lat": 32.90178,
    "lng": -117.1958
  },
  {
    "name": "Lauren Butterfield",
    "company": "",
    "address": "17702 Mitchell North",
    "city": "Irvine",
    "state": "CA",
    "zip": "92614",
    "phone": "",
    "email": "",
    "lat": 33.68376,
    "lng": -117.83136
  },
  {
    "name": "Patricia Bye",
    "company": "",
    "address": "1940 Homestead Rd",
    "city": "Santa Clara",
    "state": "CA",
    "zip": "95050",
    "phone": "(408) 234-5365",
    "email": "byeandbyeservices@gmail.com",
    "lat": 37.34333,
    "lng": -121.94755
  },
  {
    "name": "Leslie Byrne",
    "company": "",
    "address": "1271 Washington Ave",
    "city": "San Leandro",
    "state": "CA",
    "zip": "94577",
    "phone": "(510) 635-0355",
    "email": "Lmbyrne@yahoo.com",
    "lat": 37.71055,
    "lng": -122.16412
  },
  {
    "name": "Mary Caballero",
    "company": "",
    "address": "5959 Topanga Canyon Blvd",
    "city": "Woodland Hills",
    "state": "CA",
    "zip": "91367",
    "phone": "(818) 709-6400",
    "email": "mcaballero@profidsvcs.com",
    "lat": 34.17525,
    "lng": -118.61019
  },
  {
    "name": "Lisa Cadenas",
    "company": "",
    "address": "20348 Cantara St",
    "city": "Winnetka",
    "state": "CA",
    "zip": "91306",
    "phone": "(818) 701-6747",
    "email": "cadenas@msn.com",
    "lat": 34.21032,
    "lng": -118.57967
  },
  {
    "name": "Kathryn Cain",
    "company": "",
    "address": "P.O. Box 847",
    "city": "Boulder Creek",
    "state": "CA",
    "zip": "95006",
    "phone": "",
    "email": "",
    "lat": 37.17195,
    "lng": -122.1215
  },
  {
    "name": "Monique Cain",
    "company": "",
    "address": "4429 E Village Rd",
    "city": "Long Beach",
    "state": "CA",
    "zip": "90808",
    "phone": "(562) 331-7002",
    "email": "moniquecain25@gmail.com",
    "lat": 33.82603,
    "lng": -118.1072
  },
  {
    "name": "Danielle Campbell",
    "company": "",
    "address": "1842 3rd Ave",
    "city": "San Diego",
    "state": "CA",
    "zip": "92101",
    "phone": "(619) 501-4626",
    "email": "dcampbell@profiduciary.com",
    "lat": 32.71989,
    "lng": -117.17163
  },
  {
    "name": "Arthur Cappilla",
    "company": "",
    "address": "2999 Overland Ave Ste 206",
    "city": "Los Angeles",
    "state": "CA",
    "zip": "90064",
    "phone": "",
    "email": "",
    "lat": 34.0363,
    "lng": -118.43151
  },
  {
    "name": "Cynthia Capra",
    "company": "",
    "address": "1752 E Lugonia Ave Ste 117 Pmb 300",
    "city": "Redlands",
    "state": "CA",
    "zip": "92374",
    "phone": "",
    "email": "",
    "lat": 34.06263,
    "lng": -117.16668
  },
  {
    "name": "Tom Cariveau",
    "company": "",
    "address": "P.O. Box 1260",
    "city": "Lakeport",
    "state": "CA",
    "zip": "95453",
    "phone": "(707) 349-6807",
    "email": "tctrustee@yahoo.com",
    "lat": 39.04794,
    "lng": -122.91976
  },
  {
    "name": "Douglas Carr",
    "company": "",
    "address": "2658 Del Mar Heights Rd No 267",
    "city": "Del Mar",
    "state": "CA",
    "zip": "92014",
    "phone": "",
    "email": "",
    "lat": 32.97363,
    "lng": -117.24284
  },
  {
    "name": "Heather Carr",
    "company": "",
    "address": "100 Shoreline Hwy Ste 100-B",
    "city": "Mill Valley",
    "state": "CA",
    "zip": "94941",
    "phone": "",
    "email": "",
    "lat": 37.89378,
    "lng": -122.56081
  },
  {
    "name": "Cheryl Carter",
    "company": "",
    "address": "1611 S Pacific Coast Hwy",
    "city": "Redondo Beach",
    "state": "CA",
    "zip": "90277",
    "phone": "(310) 893-6983",
    "email": "cheryl@trustee.pro",
    "lat": 33.82782,
    "lng": -118.38439
  },
  {
    "name": "Janice Case",
    "company": "",
    "address": "P.O.Box 111387",
    "city": "Campbell",
    "state": "CA",
    "zip": "95011",
    "phone": "",
    "email": "",
    "lat": 37.08486,
    "lng": -121.85947
  },
  {
    "name": "Teresa Castiglione",
    "company": "",
    "address": "300 Carlsbad Village Dr.",
    "city": "Carlsbad",
    "state": "CA",
    "zip": "92008",
    "phone": "(760) 295-3812",
    "email": "tc@orgfiduciaryservices.com",
    "lat": 33.14197,
    "lng": -117.30904
  },
  {
    "name": "Dawn Catherine",
    "company": "",
    "address": "14850 Highway 4 Ste A267",
    "city": "Discovery Bay",
    "state": "CA",
    "zip": "94505",
    "phone": "",
    "email": "",
    "lat": 37.86664,
    "lng": -121.5815
  },
  {
    "name": "Shauna Cazabat",
    "company": "",
    "address": "35141 Yucaipa Blvd",
    "city": "Yucaipa",
    "state": "CA",
    "zip": "92399",
    "phone": "",
    "email": "",
    "lat": 34.05544,
    "lng": -116.99789
  },
  {
    "name": "William Chaddock",
    "company": "",
    "address": "P.O. Box 293",
    "city": "Fremont",
    "state": "CA",
    "zip": "94537",
    "phone": "",
    "email": "",
    "lat": 37.94077,
    "lng": -122.05666
  },
  {
    "name": "Marla Chaloukian",
    "company": "",
    "address": "2600 W Olive Ave",
    "city": "Burbank",
    "state": "CA",
    "zip": "91505",
    "phone": "(818) 859-7165",
    "email": "mchaloukianfs@gmail.com",
    "lat": 34.18098,
    "lng": -118.34676
  },
  {
    "name": "Lynne Chambrier",
    "company": "",
    "address": "849 Almar Ave",
    "city": "Santa Cruz",
    "state": "CA",
    "zip": "95060",
    "phone": "(408) 843-0108",
    "email": "lynnedechambrier@outlook.com",
    "lat": 37.04039,
    "lng": -122.11928
  },
  {
    "name": "Stevan Chandler",
    "company": "",
    "address": "5 N San Marcos Rd",
    "city": "Santa Barbara",
    "state": "CA",
    "zip": "93111",
    "phone": "",
    "email": "",
    "lat": 34.45688,
    "lng": -119.797
  },
  {
    "name": "Ramona Chavez",
    "company": "",
    "address": "PO Box 3096",
    "city": "South Pasadena",
    "state": "CA",
    "zip": "91031",
    "phone": "(323) 259-8710",
    "email": "rchavez@rcfiduciary.com",
    "lat": 34.18237,
    "lng": -118.1244
  },
  {
    "name": "Rafael Chavez Giron",
    "company": "",
    "address": "8685 Rio San Diego Dr #4214",
    "city": "San Diego",
    "state": "CA",
    "zip": "92108",
    "phone": "",
    "email": "",
    "lat": 32.77272,
    "lng": -117.14535
  },
  {
    "name": "Rafael Chavez-Giron",
    "company": "",
    "address": "120 Tustin Ave",
    "city": "Newport Beach",
    "state": "CA",
    "zip": "92663",
    "phone": "(424) 223-5996",
    "email": "rafael@hitchmanfiduciaries.com",
    "lat": 33.62526,
    "lng": -117.92759
  },
  {
    "name": "C. Cheadle",
    "company": "",
    "address": "1000 Quail St",
    "city": "Newport Beach",
    "state": "CA",
    "zip": "92660",
    "phone": "(949) 553-1066",
    "email": "tcheadle@cheadlelaw.net",
    "lat": 33.63118,
    "lng": -117.87185
  },
  {
    "name": "Nancy Chiquete",
    "company": "",
    "address": "5805 White Oak Ave #16744",
    "city": "Encino",
    "state": "CA",
    "zip": "91367",
    "phone": "",
    "email": "",
    "lat": 34.17525,
    "lng": -118.61019
  },
  {
    "name": "Al Chowdhury",
    "company": "",
    "address": "13201 Rhoda Dr",
    "city": "Los Altos Hills",
    "state": "CA",
    "zip": "94022",
    "phone": "(650) 400-7429",
    "email": "al@privatefiduciary.org",
    "lat": 37.35955,
    "lng": -122.13306
  },
  {
    "name": "Faisal Chowdhury",
    "company": "",
    "address": "26021 Andrea Ct",
    "city": "Mission Viejo",
    "state": "CA",
    "zip": "92691",
    "phone": "",
    "email": "",
    "lat": 33.61058,
    "lng": -117.66462
  },
  {
    "name": "Seon Chun-Burbank",
    "company": "",
    "address": "10755 Scripps Poway Parkway #635",
    "city": "San Diego",
    "state": "CA",
    "zip": "92131",
    "phone": "",
    "email": "",
    "lat": 32.90582,
    "lng": -117.07224
  },
  {
    "name": "Eun - Joo Chung",
    "company": "",
    "address": "11501 Dublin Blvd Ste 200",
    "city": "Dublin",
    "state": "CA",
    "zip": "94568",
    "phone": "",
    "email": "",
    "lat": 37.71876,
    "lng": -121.89563
  },
  {
    "name": "Eun-Joo Chung",
    "company": "",
    "address": "1812 Shady Grove Ct",
    "city": "San Jose",
    "state": "CA",
    "zip": "95138",
    "phone": "(408) 888-4820",
    "email": "ejcdion_2000@yahoo.com",
    "lat": 37.25121,
    "lng": -121.7363
  },
  {
    "name": "Melissa Chung",
    "company": "",
    "address": "2370 Market St",
    "city": "San Francisco",
    "state": "CA",
    "zip": "94114",
    "phone": "(415) 209-5529",
    "email": "melissa@mfiduciary.com",
    "lat": 37.75901,
    "lng": -122.43812
  },
  {
    "name": "Raylene Claiborne",
    "company": "",
    "address": "1700 Adams Ave Ste 205",
    "city": "Costa Mesa",
    "state": "CA",
    "zip": "92626",
    "phone": "",
    "email": "",
    "lat": 33.6757,
    "lng": -117.90359
  },
  {
    "name": "Marcia Clark",
    "company": "",
    "address": "3130 Balfour Rd #d227",
    "city": "Brentwood",
    "state": "CA",
    "zip": "94513",
    "phone": "",
    "email": "",
    "lat": 37.9227,
    "lng": -121.66344
  },
  {
    "name": "Laurie Classen",
    "company": "",
    "address": "PO Box 1468",
    "city": "Salinas",
    "state": "CA",
    "zip": "93902",
    "phone": "(831) 809-9097",
    "email": "laurieclassen@gmail.com",
    "lat": 36.47713,
    "lng": -121.57487
  },
  {
    "name": "Amber Claybourne",
    "company": "",
    "address": "9210 Irvine Center Dr Ste 200",
    "city": "Irvine",
    "state": "CA",
    "zip": "92618",
    "phone": "",
    "email": "",
    "lat": 33.66257,
    "lng": -117.74296
  },
  {
    "name": "Judy Clement",
    "company": "",
    "address": "PO Box 7194",
    "city": "Los Osos",
    "state": "CA",
    "zip": "93412",
    "phone": "",
    "email": "jude@baywoodfiduciary.com",
    "lat": 35.20628,
    "lng": -120.56593
  },
  {
    "name": "Michael Clemons",
    "company": "",
    "address": "P.O. Box 1897",
    "city": "Brentwood",
    "state": "CA",
    "zip": "94513",
    "phone": "",
    "email": "",
    "lat": 37.9227,
    "lng": -121.66344
  },
  {
    "name": "Elizabeth Clifford",
    "company": "",
    "address": "P.O. Box 20445",
    "city": "Castro Valley",
    "state": "CA",
    "zip": "94546",
    "phone": "",
    "email": "",
    "lat": 37.71584,
    "lng": -122.0824
  },
  {
    "name": "Brett Cloney",
    "company": "",
    "address": "Po Box 2103",
    "city": "Menlo Park",
    "state": "CA",
    "zip": "94026",
    "phone": "",
    "email": "",
    "lat": 37.46667,
    "lng": -122.26536
  },
  {
    "name": "Crystal Coats",
    "company": "",
    "address": "PO Box 8749",
    "city": "Chico",
    "state": "CA",
    "zip": "95927",
    "phone": "(530) 514-2888",
    "email": "crystalcoatsfs@gmail.com",
    "lat": 39.49351,
    "lng": -121.50219
  },
  {
    "name": "Keith Cobell Jr",
    "company": "",
    "address": "1224 Coast Village Cir",
    "city": "Santa Barbara",
    "state": "CA",
    "zip": "93108",
    "phone": "(805) 699-5424",
    "email": "keith@adventumimpact.com",
    "lat": 34.44768,
    "lng": -119.62938
  },
  {
    "name": "LORI COCHRANE",
    "company": "",
    "address": "200 Gateway Dr",
    "city": "Lincoln",
    "state": "CA",
    "zip": "95648",
    "phone": "(916) 705-7309",
    "email": "lori@concierge-fiduciary.com",
    "lat": 38.94544,
    "lng": -121.27133
  },
  {
    "name": "Caitlin Cogan",
    "company": "",
    "address": "1500 Pacific Coast Hwy",
    "city": "Seal Beach",
    "state": "CA",
    "zip": "90740",
    "phone": "(714) 321-3896",
    "email": "cacogan@outlook.com",
    "lat": 33.76145,
    "lng": -118.08046
  },
  {
    "name": "Louise Cogan",
    "company": "",
    "address": "1275 4th St #262",
    "city": "Santa Rosa",
    "state": "CA",
    "zip": "95404",
    "phone": "",
    "email": "",
    "lat": 38.45348,
    "lng": -122.65636
  },
  {
    "name": "Nancy Cole",
    "company": "",
    "address": "74900 Highway 111 Ste #120",
    "city": "Indian Wells",
    "state": "CA",
    "zip": "92210",
    "phone": "",
    "email": "",
    "lat": 33.71303,
    "lng": -116.3397
  },
  {
    "name": "Kim Coleman",
    "company": "",
    "address": "511 W Third St",
    "city": "Antioch",
    "state": "CA",
    "zip": "94509",
    "phone": "",
    "email": "",
    "lat": 37.9902,
    "lng": -121.82228
  },
  {
    "name": "Mike Coleman",
    "company": "",
    "address": "41 Constitution Dr",
    "city": "Corte Madera",
    "state": "CA",
    "zip": "94925",
    "phone": "(415) 297-7010",
    "email": "mcoleman@goldengatetrusts.com",
    "lat": 37.92581,
    "lng": -122.51083
  },
  {
    "name": "Samaurrii Coleman",
    "company": "",
    "address": "5098 Foothills Blvd",
    "city": "Roseville",
    "state": "CA",
    "zip": "95747",
    "phone": "(916) 672-8140",
    "email": "GemRubyDiamond@outlook.com",
    "lat": 38.77751,
    "lng": -121.36208
  },
  {
    "name": "Kristina Coley",
    "company": "",
    "address": "1120 2nd St",
    "city": "Brentwood",
    "state": "CA",
    "zip": "94513",
    "phone": "(925) 567-8027",
    "email": "kristina@kristinacoleyfiduciaryservices.com",
    "lat": 37.9227,
    "lng": -121.66344
  },
  {
    "name": "Patricia Collins",
    "company": "",
    "address": "26440 La Alameda",
    "city": "Mission Viejo",
    "state": "CA",
    "zip": "92691",
    "phone": "(949) 309-6639",
    "email": "patricia@trusteepro.com",
    "lat": 33.61058,
    "lng": -117.66462
  },
  {
    "name": "Markala Comfort",
    "company": "",
    "address": "3231 Business Park Dr",
    "city": "Vista",
    "state": "CA",
    "zip": "92081",
    "phone": "(858) 215-2624",
    "email": "markala@comfortfiduciary.com",
    "lat": 33.16556,
    "lng": -117.24539
  },
  {
    "name": "Dana Conklin",
    "company": "",
    "address": "3066 Price Ct",
    "city": "Palo Alto",
    "state": "CA",
    "zip": "94303",
    "phone": "",
    "email": "",
    "lat": 37.44787,
    "lng": -122.11776
  },
  {
    "name": "Catherine Cook",
    "company": "",
    "address": "1650 Jackson St",
    "city": "San Francisco",
    "state": "CA",
    "zip": "94109",
    "phone": "(415) 806-8154",
    "email": "catherine.cook@sbcglobal.net",
    "lat": 37.79853,
    "lng": -122.42281
  },
  {
    "name": "John Cooper",
    "company": "",
    "address": "PO Box 50101",
    "city": "Pasadena",
    "state": "CA",
    "zip": "91115",
    "phone": "(323) 240-3993",
    "email": "ok3@pacbell.net",
    "lat": 34.15171,
    "lng": -118.13389
  },
  {
    "name": "Peter Corbitt",
    "company": "",
    "address": "429 Zeno Way",
    "city": "Oak Park",
    "state": "CA",
    "zip": "91377",
    "phone": "(805) 300-1501",
    "email": "corbittfiduciary@outlook.com",
    "lat": 34.19039,
    "lng": -118.75976
  },
  {
    "name": "Sandra Corral",
    "company": "",
    "address": "333 E Camino Real",
    "city": "Monrovia",
    "state": "CA",
    "zip": "91016",
    "phone": "(818) 243-0222",
    "email": "sandra.corral@pacfed.com",
    "lat": 34.13502,
    "lng": -118.00021
  },
  {
    "name": "Paula Corsetti",
    "company": "",
    "address": "530 S Lake Ave",
    "city": "Pasadena",
    "state": "CA",
    "zip": "91101",
    "phone": "(626) 354-0611",
    "email": "paula@fiduciaryconnection.com",
    "lat": 34.14892,
    "lng": -118.13862
  },
  {
    "name": "Maria Corsini",
    "company": "",
    "address": "849 Almar Ave Ste C #413",
    "city": "Santa Cruz",
    "state": "CA",
    "zip": "95060",
    "phone": "",
    "email": "",
    "lat": 37.04039,
    "lng": -122.11928
  },
  {
    "name": "Rebecca Cote",
    "company": "",
    "address": "1700 Adams Ave",
    "city": "Costa Mesa",
    "state": "CA",
    "zip": "92626",
    "phone": "(714) 662-3000",
    "email": "becky@ocprotrust.com",
    "lat": 33.6757,
    "lng": -117.90359
  },
  {
    "name": "Jim Coulter",
    "company": "",
    "address": "820 Park Row",
    "city": "Salinas",
    "state": "CA",
    "zip": "93901",
    "phone": "(831) 595-8102",
    "email": "j-coulter@comcast.net",
    "lat": 36.64408,
    "lng": -121.63448
  },
  {
    "name": "Renee Covi",
    "company": "",
    "address": "160 alamo plaza",
    "city": "Alamo",
    "state": "CA",
    "zip": "94507",
    "phone": "(925) 953-3717",
    "email": "covire@covifiduciary.com",
    "lat": 37.85291,
    "lng": -122.02268
  },
  {
    "name": "Carol Cox",
    "company": "",
    "address": "P.O. Box 4195",
    "city": "Mission Viejo",
    "state": "CA",
    "zip": "92690",
    "phone": "",
    "email": "",
    "lat": 33.62795,
    "lng": -117.78124
  },
  {
    "name": "Aishlin Coyle",
    "company": "",
    "address": "3354 Sacramento St",
    "city": "San Francisco",
    "state": "CA",
    "zip": "94118",
    "phone": "(415) 221-2864",
    "email": "fiduciaryca12@gmail.com",
    "lat": 37.77799,
    "lng": -122.4573
  },
  {
    "name": "Donald Craig",
    "company": "",
    "address": "P.O. Box 6103",
    "city": "Ventura",
    "state": "CA",
    "zip": "93006",
    "phone": "",
    "email": "",
    "lat": 34.2495,
    "lng": -119.12162
  },
  {
    "name": "Roger Crissman",
    "company": "",
    "address": "2880 Soquel Ave",
    "city": "Santa Cruz",
    "state": "CA",
    "zip": "95062",
    "phone": "(831) 475-7000",
    "email": "roger@crissmanassociates.com",
    "lat": 36.97097,
    "lng": -121.98179
  },
  {
    "name": "Alan Crockett",
    "company": "",
    "address": "20 Upper Cir",
    "city": "Carmel Valley",
    "state": "CA",
    "zip": "93924",
    "phone": "(831) 601-1502",
    "email": "crockettal@comcast.net",
    "lat": 36.39649,
    "lng": -121.63667
  },
  {
    "name": "Nancy Cronin",
    "company": "",
    "address": "PO Box 117400",
    "city": "Burlingame",
    "state": "CA",
    "zip": "94011",
    "phone": "(650) 340-9873",
    "email": "nacronin@aol.com",
    "lat": 37.46667,
    "lng": -122.26536
  },
  {
    "name": "Melinda Cross",
    "company": "",
    "address": "19744 Beach Blvd",
    "city": "Huntington Beach",
    "state": "CA",
    "zip": "92648",
    "phone": "(949) 870-5805",
    "email": "melindascross@gmail.com",
    "lat": 33.68262,
    "lng": -118.00616
  },
  {
    "name": "Jennifer Croteau",
    "company": "",
    "address": "1160 Brickyard Cove Road",
    "city": "Richmond",
    "state": "CA",
    "zip": "94801",
    "phone": "(415) 383-9777",
    "email": "jennifer@mslfiduciary.com",
    "lat": 37.95518,
    "lng": -122.37552
  },
  {
    "name": "Elyse Crum",
    "company": "",
    "address": "3848 McHenry Ave",
    "city": "Modesto",
    "state": "CA",
    "zip": "95356",
    "phone": "(510) 934-6565",
    "email": "elyse@crumfiduciaryservices.com",
    "lat": 37.73079,
    "lng": -121.03211
  },
  {
    "name": "Kenneth Cummins",
    "company": "",
    "address": "2753 Bellezza Dr",
    "city": "San Diego",
    "state": "CA",
    "zip": "92108",
    "phone": "",
    "email": "",
    "lat": 32.77272,
    "lng": -117.14535
  },
  {
    "name": "Daniel Cunningham",
    "company": "",
    "address": "PO Box 330",
    "city": "San Francisco",
    "state": "CA",
    "zip": "94104",
    "phone": "(415) 440-2273",
    "email": "dannyc@procarepcm.com",
    "lat": 37.79071,
    "lng": -122.40214
  },
  {
    "name": "Rhiannon Cunningham",
    "company": "",
    "address": "P.O. Box 70730",
    "city": "Point Richmond",
    "state": "CA",
    "zip": "94807",
    "phone": "",
    "email": "",
    "lat": 37.94331,
    "lng": -122.32975
  },
  {
    "name": "Margaret Cymerys",
    "company": "",
    "address": "PO Box 151393",
    "city": "San Rafael",
    "state": "CA",
    "zip": "94915",
    "phone": "(415) 258-8166",
    "email": "Peggy.cfsfiduciary@gmail.com",
    "lat": 38.0794,
    "lng": -122.68301
  },
  {
    "name": "Stephen Dale",
    "company": "",
    "address": "127 Aspen Dr",
    "city": "Pacheco",
    "state": "CA",
    "zip": "94553",
    "phone": "(877) 336-3096",
    "email": "steve@gspt.org",
    "lat": 37.99037,
    "lng": -122.13886
  },
  {
    "name": "Theresa Dale",
    "company": "",
    "address": "20 Upper Circle",
    "city": "Carmel Valley",
    "state": "CA",
    "zip": "93924",
    "phone": "",
    "email": "",
    "lat": 36.39649,
    "lng": -121.63667
  },
  {
    "name": "Shannon Dalton",
    "company": "",
    "address": "Po Box 14447",
    "city": "Palm Desert",
    "state": "CA",
    "zip": "92255",
    "phone": "",
    "email": "",
    "lat": 33.60946,
    "lng": -115.90416
  },
  {
    "name": "Michael D'arelli",
    "company": "",
    "address": "P.O. Box 32501",
    "city": "San Jose",
    "state": "CA",
    "zip": "95152",
    "phone": "",
    "email": "",
    "lat": 37.31077,
    "lng": -121.85066
  },
  {
    "name": "Heidi Darling",
    "company": "",
    "address": "PO Box 505",
    "city": "Penngrove",
    "state": "CA",
    "zip": "94951",
    "phone": "(707) 310-9068",
    "email": "darlingfiduciary@gmail.com",
    "lat": 38.3216,
    "lng": -122.64416
  },
  {
    "name": "Catherine Davis",
    "company": "",
    "address": "PO Box 5578",
    "city": "San Jose",
    "state": "CA",
    "zip": "95150",
    "phone": "(408) 384-3813",
    "email": "catherinedavisclpf@gmail.com",
    "lat": 37.31077,
    "lng": -121.85066
  },
  {
    "name": "Dion Davis",
    "company": "",
    "address": "3245 University Ave",
    "city": "San Diego",
    "state": "CA",
    "zip": "92104",
    "phone": "(619) 501-7902",
    "email": "dion@finestcityfiduciary.com",
    "lat": 32.7363,
    "lng": -117.1283
  },
  {
    "name": "Matthew Davis",
    "company": "",
    "address": "256 S Robertson Blvd #120",
    "city": "Beverly Hills",
    "state": "CA",
    "zip": "90211",
    "phone": "",
    "email": "",
    "lat": 34.06483,
    "lng": -118.38145
  },
  {
    "name": "Soo Lee Davis",
    "company": "",
    "address": "2228 Longport Ct",
    "city": "Elk Grove",
    "state": "CA",
    "zip": "95758",
    "phone": "(916) 686-7804",
    "email": "soolee@adfiduciary.com",
    "lat": 38.42723,
    "lng": -121.43801
  },
  {
    "name": "Lynne De Chambrier",
    "company": "",
    "address": "4461 James Ave",
    "city": "Castro Valley",
    "state": "CA",
    "zip": "94546",
    "phone": "",
    "email": "",
    "lat": 37.71584,
    "lng": -122.0824
  },
  {
    "name": "Marilyn de Chambrier",
    "company": "",
    "address": "849 Almar Ave",
    "city": "Santa Cruz",
    "state": "CA",
    "zip": "95060",
    "phone": "(408) 843-0108",
    "email": "lynnedechambrier@outlook.com",
    "lat": 37.04039,
    "lng": -122.11928
  },
  {
    "name": "Ryan De La Fuente",
    "company": "",
    "address": "P.O. Box 1316",
    "city": "Belmont",
    "state": "CA",
    "zip": "94002",
    "phone": "",
    "email": "",
    "lat": 37.51469,
    "lng": -122.29128
  },
  {
    "name": "Grace De La Torre",
    "company": "",
    "address": "PO Box 851",
    "city": "Healdsburg",
    "state": "CA",
    "zip": "95448",
    "phone": "(707) 292-7946",
    "email": "dltfiduciary@gmail.com",
    "lat": 38.64353,
    "lng": -122.85348
  },
  {
    "name": "Andrew De Vries",
    "company": "",
    "address": "601 East Arrellaga St Ste 102",
    "city": "Santa Barbara",
    "state": "CA",
    "zip": "93103",
    "phone": "",
    "email": "",
    "lat": 34.4408,
    "lng": -119.68102
  },
  {
    "name": "Barbara de Vries",
    "company": "",
    "address": "1770 Post St",
    "city": "San Francisco",
    "state": "CA",
    "zip": "94115",
    "phone": "(415) 558-8755",
    "email": "lmabdv@yahoo.com",
    "lat": 37.78632,
    "lng": -122.43961
  },
  {
    "name": "Elizabeth Dean",
    "company": "",
    "address": "PO Box 4124",
    "city": "Davis",
    "state": "CA",
    "zip": "95617",
    "phone": "(530) 564-8295",
    "email": "beth@deantrustee.com",
    "lat": 38.6425,
    "lng": -121.27502
  },
  {
    "name": "Lawrence Dean",
    "company": "",
    "address": "Po Box 370",
    "city": "Bonsall",
    "state": "CA",
    "zip": "92003",
    "phone": "",
    "email": "",
    "lat": 33.2805,
    "lng": -117.20926
  },
  {
    "name": "Donald Debernardi",
    "company": "",
    "address": "1700 Adams Ave Ste 205",
    "city": "Costa Mesa",
    "state": "CA",
    "zip": "92626",
    "phone": "",
    "email": "",
    "lat": 33.6757,
    "lng": -117.90359
  },
  {
    "name": "Betty Dekovner",
    "company": "",
    "address": "17702 Mitchell N",
    "city": "Irvine",
    "state": "CA",
    "zip": "92614",
    "phone": "(949) 756-9050",
    "email": "betty@solsticefiduciary.com",
    "lat": 33.68376,
    "lng": -117.83136
  },
  {
    "name": "Elizabeth del Pozo",
    "company": "",
    "address": "2658 Del Mar Heights Rd",
    "city": "Del Mar",
    "state": "CA",
    "zip": "92014",
    "phone": "(858) 509-8677",
    "email": "betsy@premierefiduciaries.com",
    "lat": 32.97363,
    "lng": -117.24284
  },
  {
    "name": "Theresa Deliberto",
    "company": "",
    "address": "7474 N Figueroa St",
    "city": "Los Angeles",
    "state": "CA",
    "zip": "90041",
    "phone": "(818) 790-0623",
    "email": "tdeliberto@recordsorg.com",
    "lat": 34.1339,
    "lng": -118.20925
  },
  {
    "name": "Marlene Dennis",
    "company": "",
    "address": "P.O. Box 1268",
    "city": "Alpine",
    "state": "CA",
    "zip": "91903",
    "phone": "",
    "email": "",
    "lat": 32.70381,
    "lng": -116.79146
  },
  {
    "name": "John DePiazza",
    "company": "",
    "address": "2228 Longport Court",
    "city": "Elk Grove",
    "state": "CA",
    "zip": "95758",
    "phone": "(916) 686-7804",
    "email": "John@adfiduciary.com",
    "lat": 38.42723,
    "lng": -121.43801
  },
  {
    "name": "John DePiazza Jr",
    "company": "",
    "address": "2228 Longport Ct",
    "city": "Elk Grove",
    "state": "CA",
    "zip": "95758",
    "phone": "(916) 686-7804",
    "email": "John@ADFiduciary.com",
    "lat": 38.42723,
    "lng": -121.43801
  },
  {
    "name": "Courtney DeSoto",
    "company": "",
    "address": "132 E Figueroa St",
    "city": "Santa Barbara",
    "state": "CA",
    "zip": "93101",
    "phone": "(805) 804-3131",
    "email": "alison@cifiduciarygroup.com",
    "lat": 34.4198,
    "lng": -119.71319
  },
  {
    "name": "Sandra Dexter",
    "company": "",
    "address": "2235 Challenger Way",
    "city": "Santa Rosa",
    "state": "CA",
    "zip": "95407",
    "phone": "(707) 284-7969",
    "email": "sandra@sonomafiduciary.com",
    "lat": 38.38713,
    "lng": -122.74556
  },
  {
    "name": "Daniel Di Carlo",
    "company": "",
    "address": "2349 Alpine Heights Way",
    "city": "Alpine",
    "state": "CA",
    "zip": "91901",
    "phone": "",
    "email": "",
    "lat": 32.79298,
    "lng": -116.70216
  },
  {
    "name": "Patricia Dicken",
    "company": "",
    "address": "PO Box 6160",
    "city": "Visalia",
    "state": "CA",
    "zip": "93290",
    "phone": "(559) 732-0759",
    "email": "patd@perineanddicken.com",
    "lat": 35.8362,
    "lng": -119.18658
  },
  {
    "name": "Ronald Dicken",
    "company": "",
    "address": "PO Box 6160",
    "city": "Visalia",
    "state": "CA",
    "zip": "93290",
    "phone": "(559) 732-0759",
    "email": "rondicken01@comcast.net",
    "lat": 35.8362,
    "lng": -119.18658
  },
  {
    "name": "Robin Dier",
    "company": "",
    "address": "251 N City Dr #128f",
    "city": "San Marcos",
    "state": "CA",
    "zip": "92078",
    "phone": "",
    "email": "",
    "lat": 33.10985,
    "lng": -117.18552
  },
  {
    "name": "RAMARAO Digumarthi",
    "company": "",
    "address": "2625 Middlefield Rd",
    "city": "Palo Alto",
    "state": "CA",
    "zip": "94306",
    "phone": "(650) 796-1039",
    "email": "rdigumarthi@gmail.com",
    "lat": 37.40965,
    "lng": -122.12985
  },
  {
    "name": "Joy Dilday",
    "company": "",
    "address": "P.O. Box 151393",
    "city": "San Rafael",
    "state": "CA",
    "zip": "94915",
    "phone": "",
    "email": "",
    "lat": 38.0794,
    "lng": -122.68301
  },
  {
    "name": "Brittany Dobson",
    "company": "",
    "address": "315 Meigs Rd",
    "city": "Santa Barbara",
    "state": "CA",
    "zip": "93109",
    "phone": "(805) 319-7342",
    "email": "brittany@mimisporch.com",
    "lat": 34.40913,
    "lng": -119.71905
  },
  {
    "name": "Dagmar Dolatschko",
    "company": "",
    "address": "256 Meadow Rd",
    "city": "Santa Cruz",
    "state": "CA",
    "zip": "95060",
    "phone": "(831) 281-3314",
    "email": "dagmar@perituscompany.com",
    "lat": 37.04039,
    "lng": -122.11928
  },
  {
    "name": "Debra Dolch",
    "company": "",
    "address": "167 S Park St",
    "city": "San Francisco",
    "state": "CA",
    "zip": "94107",
    "phone": "(415) 543-2121",
    "email": "debrajdolch@fiduciaryservices.net",
    "lat": 37.77064,
    "lng": -122.39179
  },
  {
    "name": "Geraldine Donnelly",
    "company": "",
    "address": "Po Box 155",
    "city": "La Mesa",
    "state": "CA",
    "zip": "91944",
    "phone": "",
    "email": "",
    "lat": 32.70381,
    "lng": -116.79146
  },
  {
    "name": "John Douglas",
    "company": "",
    "address": "1198 Pacific Coast Hwy Ste D #506",
    "city": "Seal Beach",
    "state": "CA",
    "zip": "90740",
    "phone": "",
    "email": "",
    "lat": 33.76145,
    "lng": -118.08046
  },
  {
    "name": "Josephine Dowey",
    "company": "",
    "address": "23 Railroad Ave",
    "city": "Danville",
    "state": "CA",
    "zip": "94526",
    "phone": "(949) 300-4969",
    "email": "jdowey7@gmail.com",
    "lat": 37.81454,
    "lng": -121.98406
  },
  {
    "name": "Suzanne Dowling",
    "company": "",
    "address": "PO Box 1357",
    "city": "Soquel",
    "state": "CA",
    "zip": "95073",
    "phone": "(831) 431-0030",
    "email": "sdowling@practicalheart.com",
    "lat": 37.04957,
    "lng": -121.91794
  },
  {
    "name": "Jenice Downend",
    "company": "",
    "address": "2075 Pioneer Ct",
    "city": "San Mateo",
    "state": "CA",
    "zip": "94403",
    "phone": "(415) 244-0523",
    "email": "jenice@lassahnfiduciary.com",
    "lat": 37.5407,
    "lng": -122.30129
  },
  {
    "name": "Shannon Downs",
    "company": "",
    "address": "1451 River Park Dr",
    "city": "Sacramento",
    "state": "CA",
    "zip": "95815",
    "phone": "(916) 333-5221",
    "email": "shannon@downsfiduciaries.com",
    "lat": 38.60983,
    "lng": -121.44908
  },
  {
    "name": "Maureen Doyle",
    "company": "",
    "address": "25291 Aldea Court",
    "city": "Mission Viejo",
    "state": "CA",
    "zip": "92691",
    "phone": "",
    "email": "",
    "lat": 33.61058,
    "lng": -117.66462
  },
  {
    "name": "Brenda Dragomir",
    "company": "",
    "address": "PO Box 111387",
    "city": "Campbell",
    "state": "CA",
    "zip": "95011",
    "phone": "(408) 978-8101",
    "email": "bd@dfstrust.com",
    "lat": 37.08486,
    "lng": -121.85947
  },
  {
    "name": "Mircea Dragomir",
    "company": "",
    "address": "P.O. Box 111387",
    "city": "Campbell",
    "state": "CA",
    "zip": "95011",
    "phone": "(408) 978-8101",
    "email": "mdpfac@dfstrust.com",
    "lat": 37.08486,
    "lng": -121.85947
  },
  {
    "name": "Cynthia Droke",
    "company": "",
    "address": "1443 E Washington Blvd",
    "city": "Pasadena",
    "state": "CA",
    "zip": "91104",
    "phone": "(626) 243-7810",
    "email": "Cynthia@paismontgomery.com",
    "lat": 34.17053,
    "lng": -118.123
  },
  {
    "name": "Holly DuBois",
    "company": "",
    "address": "1569 Solano Ave",
    "city": "Berkeley",
    "state": "CA",
    "zip": "94707",
    "phone": "(510) 495-4651",
    "email": "fiduciarysolutions@yahoo.com",
    "lat": 37.89826,
    "lng": -122.28024
  },
  {
    "name": "Valerie Dubois",
    "company": "",
    "address": "28251 Estima",
    "city": "Mission Viejo",
    "state": "CA",
    "zip": "92692",
    "phone": "",
    "email": "",
    "lat": 33.60184,
    "lng": -117.64507
  },
  {
    "name": "Linda Ducote",
    "company": "",
    "address": "23 Railroad Ave #153",
    "city": "Danville",
    "state": "CA",
    "zip": "94526",
    "phone": "",
    "email": "",
    "lat": 37.81454,
    "lng": -121.98406
  },
  {
    "name": "Sharon Duncan",
    "company": "",
    "address": "5055 Business Center Dr",
    "city": "Fairfield",
    "state": "CA",
    "zip": "94534",
    "phone": "(650) 796-6800",
    "email": "sharon@duncanfiduciary.com",
    "lat": 38.21246,
    "lng": -122.13961
  },
  {
    "name": "Mary Dunne Rose",
    "company": "",
    "address": "350 Second St Ste 2",
    "city": "Los Altos",
    "state": "CA",
    "zip": "94022",
    "phone": "",
    "email": "",
    "lat": 37.35955,
    "lng": -122.13306
  },
  {
    "name": "KATHRYN E.",
    "company": "",
    "address": "656 Main St",
    "city": "Placerville",
    "state": "CA",
    "zip": "95667",
    "phone": "(916) 599-6713",
    "email": "cainfiduciary@comcast.net",
    "lat": 38.73531,
    "lng": -120.77762
  },
  {
    "name": "Robert Earnest",
    "company": "Earnest Fiduciary",
    "address": "122A E Foothill Blvd",
    "city": "Arcadia",
    "state": "CA",
    "zip": "91006",
    "phone": "(626) 596-0201",
    "email": "robert@earnestfi.com",
    "lat": 34.1262,
    "lng": -118.01935
  },
  {
    "name": "Timothy Eckardt",
    "company": "",
    "address": "Po Box 1942",
    "city": "Campbell",
    "state": "CA",
    "zip": "95009",
    "phone": "",
    "email": "",
    "lat": 37.08486,
    "lng": -121.85947
  },
  {
    "name": "Robyn Eckern",
    "company": "",
    "address": "325 Via La Cumbre",
    "city": "Greenbrae",
    "state": "CA",
    "zip": "94904",
    "phone": "",
    "email": "",
    "lat": 37.94563,
    "lng": -122.5608
  },
  {
    "name": "Sara Ecklein",
    "company": "",
    "address": "2995 Woodside Road",
    "city": "Woodside",
    "state": "CA",
    "zip": "94062",
    "phone": "(650) 881-2063",
    "email": "sara@trustandhonor.co",
    "lat": 37.41913,
    "lng": -122.29986
  },
  {
    "name": "Trudy Edelson",
    "company": "",
    "address": "232 Village Commons Blvd #13",
    "city": "Camarillo",
    "state": "CA",
    "zip": "93012",
    "phone": "",
    "email": "",
    "lat": 34.20222,
    "lng": -118.97086
  },
  {
    "name": "Mia Ehsani",
    "company": "",
    "address": "303 Potrero St Ste 52",
    "city": "Santa Cruz",
    "state": "CA",
    "zip": "95060",
    "phone": "",
    "email": "",
    "lat": 37.04039,
    "lng": -122.11928
  },
  {
    "name": "Susie Eidson",
    "company": "Eidson Fiduciary Services",
    "address": "156 Wakefield Dr",
    "city": "Oroville",
    "state": "CA",
    "zip": "95966",
    "phone": "(530) 990-6456",
    "email": "susieqeid@gmail.com",
    "lat": 39.50121,
    "lng": -121.36504
  },
  {
    "name": "Marshall Eklund",
    "company": "",
    "address": "6345 Balboa Blvd Bldg 2 Ste 247",
    "city": "Encino",
    "state": "CA",
    "zip": "91316",
    "phone": "",
    "email": "",
    "lat": 34.15695,
    "lng": -118.515
  },
  {
    "name": "Elyssa Eldridge",
    "company": "IMT Associates",
    "address": "22320 Foothill Blvd.",
    "city": "Hayward",
    "state": "CA",
    "zip": "94541",
    "phone": "(510) 352-6000",
    "email": "eeldridge@imtassociates.com",
    "lat": 37.67659,
    "lng": -122.08864
  },
  {
    "name": "Jennifer Elizarraraz",
    "company": "Concierge Fiduciary Services",
    "address": "200 Gateway Dr",
    "city": "Lincoln",
    "state": "CA",
    "zip": "95648",
    "phone": "(916) 775-3303",
    "email": "jenny@concierge-fiduciary.com",
    "lat": 38.94544,
    "lng": -121.27133
  },
  {
    "name": "Megan Elsea",
    "company": "",
    "address": "86 Beach Rd",
    "city": "Belvedere",
    "state": "CA",
    "zip": "94920",
    "phone": "",
    "email": "",
    "lat": 37.89257,
    "lng": -122.47162
  },
  {
    "name": "Loren Emmanuel",
    "company": "",
    "address": "Po Box 3454",
    "city": "Los Altos",
    "state": "CA",
    "zip": "94024",
    "phone": "",
    "email": "",
    "lat": 37.34967,
    "lng": -122.09319
  },
  {
    "name": "Rick Emmett",
    "company": "",
    "address": "10755 Scripps Poway Pkwy #457",
    "city": "San Diego",
    "state": "CA",
    "zip": "92131",
    "phone": "",
    "email": "",
    "lat": 32.90582,
    "lng": -117.07224
  },
  {
    "name": "Melissa Enlow",
    "company": "Enlow Fishler Fiduciary, LLC",
    "address": "145 Corte Madera Town Ctr",
    "city": "Corte Madera",
    "state": "CA",
    "zip": "94925",
    "phone": "(415) 927-2411",
    "email": "melissaenlow@effiduciary.com",
    "lat": 37.92581,
    "lng": -122.51083
  },
  {
    "name": "Steven Eperthener",
    "company": "Steven Eperthener, CPA, CLPF, NCG",
    "address": "4521 Campus Dr",
    "city": "Irvine",
    "state": "CA",
    "zip": "92612",
    "phone": "(310) 890-1123",
    "email": "steve@sdecpa.com",
    "lat": 33.6566,
    "lng": -117.82395
  },
  {
    "name": "Christina Erickson-Taube",
    "company": "Christina Erickson-Taube, Fiduciary Inc.",
    "address": "222 Main St",
    "city": "Seal Beach",
    "state": "CA",
    "zip": "90740",
    "phone": "(562) 342-2100",
    "email": "Christina@fiduciaryassist.com",
    "lat": 33.76145,
    "lng": -118.08046
  },
  {
    "name": "Tina Ernano-O'Leary",
    "company": "Mindful Fiduciary Assistance",
    "address": "PO Box 1237",
    "city": "El Cerrito",
    "state": "CA",
    "zip": "94530",
    "phone": "",
    "email": "olearyfiduciary@gmail.com",
    "lat": 37.91736,
    "lng": -122.29427
  },
  {
    "name": "Reyna Escobar",
    "company": "",
    "address": "P.O. Box 130490",
    "city": "Carlsbad",
    "state": "CA",
    "zip": "92013",
    "phone": "",
    "email": "",
    "lat": 33.11754,
    "lng": -117.07694
  },
  {
    "name": "Shelley Eskildsen",
    "company": "",
    "address": "3738 Foothill Blvd",
    "city": "Glendale",
    "state": "CA",
    "zip": "91214",
    "phone": "",
    "email": "",
    "lat": 34.22478,
    "lng": -118.25375
  },
  {
    "name": "Sharmane Estolano",
    "company": "",
    "address": "2215 Artesia Blvd #1246",
    "city": "Redondo Beach",
    "state": "CA",
    "zip": "90278",
    "phone": "",
    "email": "",
    "lat": 33.86862,
    "lng": -118.37107
  },
  {
    "name": "Gregory Etter",
    "company": "",
    "address": "7740 Painter Ave #207",
    "city": "Whittier",
    "state": "CA",
    "zip": "90602",
    "phone": "",
    "email": "",
    "lat": 33.9702,
    "lng": -118.03155
  },
  {
    "name": "Katharine Ettinger",
    "company": "",
    "address": "619 N Harbor Blvd",
    "city": "Fullerton",
    "state": "CA",
    "zip": "92832",
    "phone": "",
    "email": "",
    "lat": 33.87169,
    "lng": -117.92657
  },
  {
    "name": "Jane-Marie Evans",
    "company": "Evans Trust Management",
    "address": "15 Santa Maria",
    "city": "Foothill Ranch",
    "state": "CA",
    "zip": "92610",
    "phone": "(949) 424-5559",
    "email": "janeevanstrustee@gmail.com",
    "lat": 33.69306,
    "lng": -117.67264
  },
  {
    "name": "Dorothy Everett",
    "company": "",
    "address": "P.O. Box 4561",
    "city": "Crestline",
    "state": "CA",
    "zip": "92325",
    "phone": "",
    "email": "",
    "lat": 34.24141,
    "lng": -117.29383
  },
  {
    "name": "Mary Falkenrath",
    "company": "",
    "address": "PO Box 268",
    "city": "Mendocino",
    "state": "CA",
    "zip": "95460",
    "phone": "(916) 730-1408",
    "email": "mff722@gmail.com",
    "lat": 39.30799,
    "lng": -123.74
  },
  {
    "name": "Elizabeth Faraimo",
    "company": "",
    "address": "1107 Fair Oaks Ave",
    "city": "South Pasadena",
    "state": "CA",
    "zip": "91030",
    "phone": "",
    "email": "",
    "lat": 34.11273,
    "lng": -118.15556
  },
  {
    "name": "Robyn Farber",
    "company": "Robyn Farber and Associates",
    "address": "22996 El Toro",
    "city": "Lake Forest",
    "state": "CA",
    "zip": "92630",
    "phone": "(949) 458-7377",
    "email": "robyn@fiduciaryplus.com",
    "lat": 33.64068,
    "lng": -117.68568
  },
  {
    "name": "Erika Farkas",
    "company": "",
    "address": "3288 21st St #170",
    "city": "San Francisco",
    "state": "CA",
    "zip": "94110",
    "phone": "",
    "email": "",
    "lat": 37.74638,
    "lng": -122.41606
  },
  {
    "name": "Linda Farquhar",
    "company": "",
    "address": "P.O. Box 29133",
    "city": "San Francisco",
    "state": "CA",
    "zip": "94129",
    "phone": "",
    "email": "",
    "lat": 37.79934,
    "lng": -122.46359
  },
  {
    "name": "John Farrar",
    "company": "John H. Farrar & Associates",
    "address": "398 FERRINI RD",
    "city": "San Luis obispo",
    "state": "CA",
    "zip": "93405",
    "phone": "(805) 458-9071",
    "email": "hankfarrar@yahoo.com",
    "lat": 35.30116,
    "lng": -120.7272
  },
  {
    "name": "Aileen Federizo",
    "company": "ElderWell",
    "address": "5805 White Oak Ave",
    "city": "Encino",
    "state": "CA",
    "zip": "91416",
    "phone": "(818) 436-4684",
    "email": "aileen@elderwell.net",
    "lat": 34.17846,
    "lng": -118.4581
  },
  {
    "name": "Jennifer Feehan",
    "company": "Jennifer Feehan Professional Fiduciary, Inc.",
    "address": "9740 Campo Rd",
    "city": "Spring Valley",
    "state": "CA",
    "zip": "91977",
    "phone": "(619) 535-6518",
    "email": "jennifer@jenniferfeehan.com",
    "lat": 32.72823,
    "lng": -116.99816
  },
  {
    "name": "Jennifer Fejzic",
    "company": "Probate Fiduciary Services, Inc.",
    "address": "2324 Hyacinth St",
    "city": "San Bernardino",
    "state": "CA",
    "zip": "92407",
    "phone": "(909) 273-8075",
    "email": "jennifer@probatefiduciary.com",
    "lat": 34.22444,
    "lng": -117.38543
  },
  {
    "name": "Annie Felix",
    "company": "",
    "address": "2534 State St",
    "city": "San Diego",
    "state": "CA",
    "zip": "92101",
    "phone": "",
    "email": "",
    "lat": 32.71989,
    "lng": -117.17163
  },
  {
    "name": "Karen Field",
    "company": "",
    "address": "104 Forno Way",
    "city": "Cotati",
    "state": "CA",
    "zip": "94931",
    "phone": "",
    "email": "",
    "lat": 38.32319,
    "lng": -122.70605
  },
  {
    "name": "Cynthia Finerty",
    "company": "",
    "address": "P.O. Box 654",
    "city": "Mt Baldy",
    "state": "CA",
    "zip": "91759",
    "phone": "",
    "email": "",
    "lat": 34.25092,
    "lng": -117.67189
  },
  {
    "name": "Frank Fiorito",
    "company": "Exclusive Estate Administration, Inc.",
    "address": "11440 W Bernardo Ct",
    "city": "San Diego",
    "state": "CA",
    "zip": "92127",
    "phone": "(858) 521-8504",
    "email": "frankfiorito@eeadmin.com",
    "lat": 33.02176,
    "lng": -117.12985
  },
  {
    "name": "Donald Fischer",
    "company": "Donald E. Fischer, Fiduciary",
    "address": "2000 Fresno St",
    "city": "Fresno",
    "state": "CA",
    "zip": "93721",
    "phone": "(559) 905-4315",
    "email": "DonaldFischer@FiduciaryCalifornia.com",
    "lat": 36.733,
    "lng": -119.78719
  },
  {
    "name": "Heather Fisher",
    "company": "Fisher Fiduciary Services",
    "address": "1112 N Main St",
    "city": "Manteca",
    "state": "CA",
    "zip": "95336",
    "phone": "(209) 629-8518",
    "email": "hfisher@fisherfiduciary.com",
    "lat": 37.85308,
    "lng": -121.19435
  },
  {
    "name": "Karen Fisher",
    "company": "Bishop Fiduciary Services Ltd",
    "address": "1399 Ygnacio Valley Rd",
    "city": "Walnut Creek",
    "state": "CA",
    "zip": "94598",
    "phone": "(925) 954-8724",
    "email": "karen@bishopfiduciary.com",
    "lat": 37.88976,
    "lng": -121.98733
  },
  {
    "name": "Alice Fishler",
    "company": "Enlow Fishler Fiduciary",
    "address": "145 Corte Madera Town Ctr",
    "city": "Corte Madera",
    "state": "CA",
    "zip": "94925",
    "phone": "(415) 927-2411",
    "email": "alicefishler@effiduciary.com",
    "lat": 37.92581,
    "lng": -122.51083
  },
  {
    "name": "Gabriela Fisk",
    "company": "",
    "address": "2111 Redondela Dr",
    "city": "Rancho Palos Verdes",
    "state": "CA",
    "zip": "90275",
    "phone": "",
    "email": "",
    "lat": 33.75963,
    "lng": -118.35802
  },
  {
    "name": "Patricia Fister",
    "company": "",
    "address": "PO Box 130490",
    "city": "Carlsbad",
    "state": "CA",
    "zip": "92013",
    "phone": "(760) 931-8821",
    "email": "pf4care@gmail.com",
    "lat": 33.11754,
    "lng": -117.07694
  },
  {
    "name": "Richard Fivis",
    "company": "One On One BBA, Inc.",
    "address": "533 Airport Blvd",
    "city": "Burlingame",
    "state": "CA",
    "zip": "94010",
    "phone": "(650) 689-5583",
    "email": "rfivis@oneononebba.com",
    "lat": 37.57031,
    "lng": -122.36176
  },
  {
    "name": "Stephanie Flanders",
    "company": "",
    "address": "78800 Citrus",
    "city": "La Quinta",
    "state": "CA",
    "zip": "92253",
    "phone": "",
    "email": "",
    "lat": 33.68628,
    "lng": -116.27547
  },
  {
    "name": "Lynne Fleming Conger",
    "company": "",
    "address": "P.O. Box 111807",
    "city": "Campbell",
    "state": "CA",
    "zip": "95011",
    "phone": "",
    "email": "",
    "lat": 37.08486,
    "lng": -121.85947
  },
  {
    "name": "Frederick Flemming",
    "company": "",
    "address": "17275 Voorhes Lane",
    "city": "Ramona",
    "state": "CA",
    "zip": "92065",
    "phone": "",
    "email": "",
    "lat": 33.04285,
    "lng": -116.83747
  },
  {
    "name": "Richard Floyd",
    "company": "",
    "address": "P.O. Box 10817",
    "city": "Glendale",
    "state": "CA",
    "zip": "91209",
    "phone": "",
    "email": "",
    "lat": 34.1674,
    "lng": -118.25269
  },
  {
    "name": "Rik Floyd",
    "company": "ProFiduciary",
    "address": "1842 3rd Ave",
    "city": "San Diego",
    "state": "CA",
    "zip": "92101",
    "phone": "(858) 481-8554",
    "email": "rfloyd@profiduciary.com",
    "lat": 32.71989,
    "lng": -117.17163
  },
  {
    "name": "Cindy Flynn",
    "company": "",
    "address": "P.O. Box 2148",
    "city": "Alameda",
    "state": "CA",
    "zip": "94501",
    "phone": "",
    "email": "",
    "lat": 37.77292,
    "lng": -122.26118
  },
  {
    "name": "Stephen Ford",
    "company": "",
    "address": "1900 S Norfolk St Ste 350",
    "city": "San Mateo",
    "state": "CA",
    "zip": "94403",
    "phone": "",
    "email": "",
    "lat": 37.5407,
    "lng": -122.30129
  },
  {
    "name": "Susan Fowle",
    "company": "SF Fiduciary Services",
    "address": "PO Box 32571",
    "city": "San Jose",
    "state": "CA",
    "zip": "95152",
    "phone": "",
    "email": "susan@sffiduciary.com",
    "lat": 37.31077,
    "lng": -121.85066
  },
  {
    "name": "John Fraker",
    "company": "",
    "address": "P.O. Box 2497",
    "city": "El Cerrito",
    "state": "CA",
    "zip": "94530",
    "phone": "",
    "email": "",
    "lat": 37.91736,
    "lng": -122.29427
  },
  {
    "name": "Cynthia Freedman",
    "company": "Freedman Fiduciary",
    "address": "9051 Mira Mesa Blvd",
    "city": "San Diego",
    "state": "CA",
    "zip": "92126",
    "phone": "(619) 724-0924",
    "email": "Cynthia@freedmanfiduciary.com",
    "lat": 32.89997,
    "lng": -117.14239
  },
  {
    "name": "Lindsay Freeman",
    "company": "CSC Fiduciaries Inc.",
    "address": "2125 Oak Grove Rd",
    "city": "Walnut Creek",
    "state": "CA",
    "zip": "94598",
    "phone": "",
    "email": "lindsayfreeman17@gmail.com",
    "lat": 37.88976,
    "lng": -121.98733
  },
  {
    "name": "Benjamin Fried",
    "company": "Fried Wealth Fiduciary Services",
    "address": "6371 Twin Lake Dr",
    "city": "San Diego",
    "state": "CA",
    "zip": "92119",
    "phone": "",
    "email": "benj788@gmail.com",
    "lat": 32.80557,
    "lng": -117.03996
  },
  {
    "name": "Angelique Friend",
    "company": "",
    "address": "P.O. Box 988",
    "city": "La Quinta",
    "state": "CA",
    "zip": "92247",
    "phone": "",
    "email": "",
    "lat": 33.60946,
    "lng": -115.90416
  },
  {
    "name": "Anne Friscia",
    "company": "",
    "address": "19201 Sonoma Hwy #139",
    "city": "Sonoma",
    "state": "CA",
    "zip": "95476",
    "phone": "",
    "email": "",
    "lat": 38.25014,
    "lng": -122.45911
  },
  {
    "name": "Karen Fritz",
    "company": "Trusted Care Fiduciary Services",
    "address": "PO Box 8400",
    "city": "Long Beach",
    "state": "CA",
    "zip": "90808",
    "phone": "(562) 900-4071",
    "email": "karenfritzclpf392@gmail.com",
    "lat": 33.82603,
    "lng": -118.1072
  },
  {
    "name": "Kristen Fritz",
    "company": "Professional Fiduciaries of San Diego, Inc.",
    "address": "5190 Governor Dr",
    "city": "San Diego",
    "state": "CA",
    "zip": "92122",
    "phone": "(619) 752-3220",
    "email": "kristen@pfosd.com",
    "lat": 32.86643,
    "lng": -117.16802
  },
  {
    "name": "Ryan Fuente",
    "company": "",
    "address": "PO Box 1328",
    "city": "Pleasanton",
    "state": "CA",
    "zip": "94566",
    "phone": "(925) 413-0772",
    "email": "ryan.fiduciary@gmail.com",
    "lat": 37.6473,
    "lng": -121.86218
  },
  {
    "name": "Silvia Galaviz",
    "company": "SPG Fiduciary Services",
    "address": "PO Box 85",
    "city": "Lakewood",
    "state": "CA",
    "zip": "90714",
    "phone": "(424) 234-1982",
    "email": "SilviaPGalaviz@gmail.com",
    "lat": 33.79488,
    "lng": -118.18341
  },
  {
    "name": "Jerry Gallagher",
    "company": "Vantage Fiduciary",
    "address": "4967 Newport Ave., Stew. 12",
    "city": "San Diego",
    "state": "CA",
    "zip": "92107",
    "phone": "(000) 000-0000",
    "email": "jerry@vantagefiduciary.com",
    "lat": 32.73672,
    "lng": -117.24201
  },
  {
    "name": "Mary Gallagher",
    "company": "",
    "address": "1271 Washington Ave Pmb 803",
    "city": "San Leandro",
    "state": "CA",
    "zip": "94577",
    "phone": "",
    "email": "",
    "lat": 37.71055,
    "lng": -122.16412
  },
  {
    "name": "Chris Garcia",
    "company": "",
    "address": "PO Box 20445",
    "city": "Castro Valley",
    "state": "CA",
    "zip": "94546",
    "phone": "",
    "email": "chrisgarcia.pa@yahoo.com",
    "lat": 37.71584,
    "lng": -122.0824
  },
  {
    "name": "Deborah Garcia",
    "company": "",
    "address": "PO Box 293",
    "city": "Fremont",
    "state": "CA",
    "zip": "94537",
    "phone": "(510) 792-7000",
    "email": "",
    "lat": 37.94077,
    "lng": -122.05666
  },
  {
    "name": "Leticia Garcia",
    "company": "",
    "address": "661 5th St",
    "city": "Lincoln",
    "state": "CA",
    "zip": "95648",
    "phone": "(916) 409-2330",
    "email": "",
    "lat": 38.94544,
    "lng": -121.27133
  },
  {
    "name": "Patricia Garcia",
    "company": "",
    "address": "12520 High Bluff Dr",
    "city": "San Diego",
    "state": "CA",
    "zip": "92130",
    "phone": "(858) 526-3741",
    "email": "",
    "lat": 32.9582,
    "lng": -117.19494
  },
  {
    "name": "James Gargiulo",
    "company": "",
    "address": "P.O. Box 1561",
    "city": "Hemet",
    "state": "CA",
    "zip": "92546",
    "phone": "",
    "email": "",
    "lat": 33.75909,
    "lng": -117.16661
  },
  {
    "name": "Scott Garl",
    "company": "",
    "address": "5055 Business Center Dr Ste 108-348",
    "city": "Fairfield",
    "state": "CA",
    "zip": "94534",
    "phone": "",
    "email": "",
    "lat": 38.21246,
    "lng": -122.13961
  },
  {
    "name": "David Gaul",
    "company": "",
    "address": "5229 Rio Grande Dr",
    "city": "San Jose",
    "state": "CA",
    "zip": "95136",
    "phone": "(408) 829-9848",
    "email": "davegaulcpa@gmail.com",
    "lat": 37.27376,
    "lng": -121.85466
  },
  {
    "name": "Susan Ghormley",
    "company": "",
    "address": "147 W Route 66",
    "city": "Glendora",
    "state": "CA",
    "zip": "91740",
    "phone": "(310) 600-7914",
    "email": "susan@iefids.com",
    "lat": 34.12115,
    "lng": -117.84109
  },
  {
    "name": "Maureen Gibbons",
    "company": "",
    "address": "2075 Pioneer Ct",
    "city": "San Mateo",
    "state": "CA",
    "zip": "94403",
    "phone": "",
    "email": "",
    "lat": 37.5407,
    "lng": -122.30129
  },
  {
    "name": "Patricia Gibeau",
    "company": "",
    "address": "301 Forest Avenue",
    "city": "Laguna Beach",
    "state": "CA",
    "zip": "92651",
    "phone": "",
    "email": "",
    "lat": 33.55419,
    "lng": -117.77459
  },
  {
    "name": "Chris Glaeser",
    "company": "",
    "address": "1107 Fair Oaks Ave",
    "city": "South Pasadena",
    "state": "CA",
    "zip": "91030",
    "phone": "(626) 497-2081",
    "email": "chris@activtm.com",
    "lat": 34.11273,
    "lng": -118.15556
  },
  {
    "name": "Jane Goldfarb",
    "company": "",
    "address": "1887 Greenfield Ave",
    "city": "Los Angeles",
    "state": "CA",
    "zip": "90025",
    "phone": "(310) 722-5410",
    "email": "jgoldfarb_57@yahoo.com",
    "lat": 34.04626,
    "lng": -118.44687
  },
  {
    "name": "Barbara Goldstein",
    "company": "",
    "address": "367 South Baywood Ave",
    "city": "San Jose",
    "state": "CA",
    "zip": "95128",
    "phone": "",
    "email": "",
    "lat": 37.31568,
    "lng": -121.93532
  },
  {
    "name": "Jordan Goldstein",
    "company": "",
    "address": "5 3rd St",
    "city": "San Francisco",
    "state": "CA",
    "zip": "94103",
    "phone": "(415) 369-9000",
    "email": "jgfiduciary@gmail.com",
    "lat": 37.77307,
    "lng": -122.40738
  },
  {
    "name": "Brandy Gomez",
    "company": "",
    "address": "35141 Yucaipa Blvd",
    "city": "Yucaipa",
    "state": "CA",
    "zip": "92399",
    "phone": "(909) 403-4080",
    "email": "kaalundfiduciary@gmail.com",
    "lat": 34.05544,
    "lng": -116.99789
  },
  {
    "name": "Michael Gonzalez",
    "company": "",
    "address": "211 N Third St #315",
    "city": "Burbank",
    "state": "CA",
    "zip": "91502",
    "phone": "",
    "email": "",
    "lat": 34.17923,
    "lng": -118.31232
  },
  {
    "name": "Madison Gottschall",
    "company": "",
    "address": "684 E Fox Ct Unit A",
    "city": "Redwood City",
    "state": "CA",
    "zip": "94061",
    "phone": "",
    "email": "",
    "lat": 37.45998,
    "lng": -122.24569
  },
  {
    "name": "Susan Graven",
    "company": "",
    "address": "318 Avenue I",
    "city": "Redondo Beach",
    "state": "CA",
    "zip": "90277",
    "phone": "(424) 265-2022",
    "email": "susan@graven.com",
    "lat": 33.82782,
    "lng": -118.38439
  },
  {
    "name": "Steven Green",
    "company": "",
    "address": "3432 South Peck Ave #102",
    "city": "San Pedro",
    "state": "CA",
    "zip": "90731",
    "phone": "",
    "email": "",
    "lat": 33.74348,
    "lng": -118.28665
  },
  {
    "name": "Condra Griffin",
    "company": "",
    "address": "P.O. Box 9075",
    "city": "Marina Del Rey",
    "state": "CA",
    "zip": "90295",
    "phone": "(310) 735-7542",
    "email": "CG@fidcare.net",
    "lat": 33.94705,
    "lng": -118.35185
  },
  {
    "name": "Will Griffin",
    "company": "",
    "address": "4742 Mansfield St",
    "city": "San Diego",
    "state": "CA",
    "zip": "92116",
    "phone": "(707) 365-8552",
    "email": "will@griffinfiduciaryservices.com",
    "lat": 32.7668,
    "lng": -117.12089
  },
  {
    "name": "Luiza Grigoryan",
    "company": "",
    "address": "611 Wilshire Blvd Ste 900",
    "city": "Los Angeles",
    "state": "CA",
    "zip": "90017",
    "phone": "",
    "email": "",
    "lat": 34.05089,
    "lng": -118.26319
  },
  {
    "name": "John Grimes",
    "company": "",
    "address": "PO Box 1220",
    "city": "Palo Cedro",
    "state": "CA",
    "zip": "96073",
    "phone": "(530) 547-3450",
    "email": "jgrimes@grimesandcompany.com",
    "lat": 40.57473,
    "lng": -122.211
  },
  {
    "name": "Krista Grosso",
    "company": "",
    "address": "P.O. Box 71",
    "city": "Novato",
    "state": "CA",
    "zip": "94948",
    "phone": "",
    "email": "",
    "lat": 38.0794,
    "lng": -122.68301
  },
  {
    "name": "Suzanne Grudnitski",
    "company": "",
    "address": "1611 S Pacific Coast Hwy",
    "city": "Redondo Beach",
    "state": "CA",
    "zip": "90277",
    "phone": "(310) 893-6982",
    "email": "suzanne@trustee.pro",
    "lat": 33.82782,
    "lng": -118.38439
  },
  {
    "name": "Danielle Guldmann",
    "company": "",
    "address": "PO Box 1316",
    "city": "Belmont",
    "state": "CA",
    "zip": "94002",
    "phone": "(415) 525-2523",
    "email": "danielleguldmann@gmail.com",
    "lat": 37.51469,
    "lng": -122.29128
  },
  {
    "name": "Roxanne Gunther",
    "company": "",
    "address": "221 N 3rd St",
    "city": "Burbank",
    "state": "CA",
    "zip": "91502",
    "phone": "(747) 283-1823",
    "email": "roxanne@guntherpfs.com",
    "lat": 34.17923,
    "lng": -118.31232
  },
  {
    "name": "Rebecca Guyette",
    "company": "",
    "address": "224 Acadia St",
    "city": "San Francisco",
    "state": "CA",
    "zip": "94131",
    "phone": "(415) 728-4864",
    "email": "attyrjg@gmail.com",
    "lat": 37.74969,
    "lng": -122.44751
  },
  {
    "name": "Tammy Haar",
    "company": "",
    "address": "228 Windsor River Rd",
    "city": "Windsor",
    "state": "CA",
    "zip": "95492",
    "phone": "(707) 235-9205",
    "email": "tammy@vonderhaarfiduciary.com",
    "lat": 38.52617,
    "lng": -122.80818
  },
  {
    "name": "Jennifer Haas",
    "company": "",
    "address": "8270 La Mesa Blvd Ste 201",
    "city": "La Mesa",
    "state": "CA",
    "zip": "91942",
    "phone": "",
    "email": "",
    "lat": 32.77756,
    "lng": -117.02314
  },
  {
    "name": "Mary Hadik-Barkoczy",
    "company": "",
    "address": "PO Box 2329",
    "city": "Fort Bragg",
    "state": "CA",
    "zip": "95437",
    "phone": "(707) 734-0035",
    "email": "andreahadik@gmail.com",
    "lat": 39.45654,
    "lng": -123.70991
  },
  {
    "name": "Paula Haeussler",
    "company": "",
    "address": "3559 Mt Diablo Blvd Unit 100 Pmb 4",
    "city": "Lafayette",
    "state": "CA",
    "zip": "94549",
    "phone": "",
    "email": "",
    "lat": 37.90322,
    "lng": -122.11299
  },
  {
    "name": "Stacey Haft",
    "company": "",
    "address": "2549 Eastbluff Drive",
    "city": "Newport Beach",
    "state": "CA",
    "zip": "92660",
    "phone": "(949) 335-7085",
    "email": "stacey@sjhfiduciary.com",
    "lat": 33.63118,
    "lng": -117.87185
  },
  {
    "name": "James Hagen",
    "company": "",
    "address": "5700 Baltimore Dr",
    "city": "La Mesa",
    "state": "CA",
    "zip": "91942",
    "phone": "(619) 994-8414",
    "email": "james@firstfiduciarysd.com",
    "lat": 32.77756,
    "lng": -117.02314
  },
  {
    "name": "Monica Hagen",
    "company": "",
    "address": "11 Golden Shore Ste 440",
    "city": "Long Beach",
    "state": "CA",
    "zip": "90802",
    "phone": "",
    "email": "",
    "lat": 33.76278,
    "lng": -118.20172
  },
  {
    "name": "Beth Haley",
    "company": "",
    "address": "PO Box 8147",
    "city": "Chico",
    "state": "CA",
    "zip": "95927",
    "phone": "(530) 519-6254",
    "email": "HaleyFSInc@gmail.com",
    "lat": 39.49351,
    "lng": -121.50219
  },
  {
    "name": "Kathryn Hall",
    "company": "",
    "address": "146 W Bastanchury Road",
    "city": "Fullerton",
    "state": "CA",
    "zip": "92835",
    "phone": "",
    "email": "",
    "lat": 33.90372,
    "lng": -117.91008
  },
  {
    "name": "William Hall",
    "company": "",
    "address": "PO Box 847",
    "city": "Boulder Creek",
    "state": "CA",
    "zip": "95006",
    "phone": "(650) 278-5622",
    "email": "cardinalfiduciary@gmail.com",
    "lat": 37.17195,
    "lng": -122.1215
  },
  {
    "name": "Jeanette Hamilton",
    "company": "",
    "address": "PO Box 1705",
    "city": "Fair Oaks",
    "state": "CA",
    "zip": "95628",
    "phone": "(916) 965-9800",
    "email": "Jeanette@HamiltonFiduciarySvcs.com",
    "lat": 38.65654,
    "lng": -121.25873
  },
  {
    "name": "Steven Hamilton",
    "company": "",
    "address": "18881 Von Karman Ave Ste 810",
    "city": "Irvine",
    "state": "CA",
    "zip": "92612",
    "phone": "",
    "email": "",
    "lat": 33.6566,
    "lng": -117.82395
  },
  {
    "name": "James Hamiter",
    "company": "",
    "address": "1271 Washington Ave",
    "city": "San Leandro",
    "state": "CA",
    "zip": "94577",
    "phone": "(510) 822-2001",
    "email": "James@magicmia.net",
    "lat": 37.71055,
    "lng": -122.16412
  },
  {
    "name": "Robert Hammond",
    "company": "",
    "address": "8156 Lindenwood Dr",
    "city": "Huntington Beach",
    "state": "CA",
    "zip": "92646",
    "phone": "(949) 307-3678",
    "email": "robert@robertehammond.com",
    "lat": 33.66907,
    "lng": -117.98028
  },
  {
    "name": "David Hanks",
    "company": "",
    "address": "1630 N Main St",
    "city": "Walnut Creek",
    "state": "CA",
    "zip": "94596",
    "phone": "(925) 938-3245",
    "email": "david@northcoastfiduciary.com",
    "lat": 37.89281,
    "lng": -122.04094
  },
  {
    "name": "Jennifer Hans",
    "company": "",
    "address": "PO Box 370",
    "city": "Bonsall",
    "state": "CA",
    "zip": "92003",
    "phone": "(760) 591-9338",
    "email": "jennifer@hansprobate.com",
    "lat": 33.2805,
    "lng": -117.20926
  },
  {
    "name": "Beth Hansen",
    "company": "",
    "address": "809 Laurel St #161",
    "city": "San Carlos",
    "state": "CA",
    "zip": "94070",
    "phone": "",
    "email": "",
    "lat": 37.49642,
    "lng": -122.27178
  },
  {
    "name": "Lisa Hansen",
    "company": "",
    "address": "535 3rd St",
    "city": "Eureka",
    "state": "CA",
    "zip": "95501",
    "phone": "(707) 444-9364",
    "email": "lisa@hansenpereira.com",
    "lat": 40.79995,
    "lng": -124.13281
  },
  {
    "name": "Mateen Hansen",
    "company": "",
    "address": "221 Main St",
    "city": "Los Altos",
    "state": "CA",
    "zip": "94023",
    "phone": "(650) 405-4665",
    "email": "mateen@hansenfiduciary.com",
    "lat": 37.46667,
    "lng": -122.26536
  },
  {
    "name": "Andrew Harker",
    "company": "",
    "address": "PO Box 4963",
    "city": "Palm Springs",
    "state": "CA",
    "zip": "92263",
    "phone": "(760) 459-1594",
    "email": "aharker@harkerfiduciary.com",
    "lat": 33.60946,
    "lng": -115.90416
  },
  {
    "name": "Lori Hartin",
    "company": "",
    "address": "1100 Corporate Way",
    "city": "Sacramento",
    "state": "CA",
    "zip": "95831",
    "phone": "(916) 235-3777",
    "email": "lori@WHCalifornia.com",
    "lat": 38.49671,
    "lng": -121.5273
  },
  {
    "name": "Cynthia Harvey",
    "company": "",
    "address": "P.O. Box 14100",
    "city": "Santa Rosa",
    "state": "CA",
    "zip": "95402",
    "phone": "",
    "email": "",
    "lat": 38.89376,
    "lng": -123.07267
  },
  {
    "name": "David Haskell",
    "company": "",
    "address": "77711 Flora Rd Ste 202",
    "city": "Palm Desert",
    "state": "CA",
    "zip": "92211",
    "phone": "",
    "email": "",
    "lat": 33.76316,
    "lng": -116.32993
  },
  {
    "name": "Jolanta Hastings",
    "company": "",
    "address": "2125 Oak Grove Rd",
    "city": "Walnut Creek",
    "state": "CA",
    "zip": "94598",
    "phone": "(925) 456-5500",
    "email": "Jolanta@cscfiduciaries.com",
    "lat": 37.88976,
    "lng": -121.98733
  },
  {
    "name": "BJ Hawkins",
    "company": "",
    "address": "7381 La Tijera Blvd",
    "city": "Los Angeles",
    "state": "CA",
    "zip": "90045",
    "phone": "(424) 243-8003",
    "email": "bj@onesourcefiduciary.com",
    "lat": 33.95638,
    "lng": -118.40444
  },
  {
    "name": "Theresa Hawkins",
    "company": "",
    "address": "PO Box 152630",
    "city": "San Diego",
    "state": "CA",
    "zip": "92195",
    "phone": "(619) 698-9450",
    "email": "thawkinspf@cox.net",
    "lat": 32.77961,
    "lng": -117.13547
  },
  {
    "name": "Kellie Hayes",
    "company": "",
    "address": "PO Box 2449",
    "city": "Livermore",
    "state": "CA",
    "zip": "94551",
    "phone": "(925) 548-0205",
    "email": "kellie.hayes100@gmail.com",
    "lat": 37.76388,
    "lng": -121.78528
  },
  {
    "name": "William Hayman",
    "company": "",
    "address": "2144 Sterling Dr",
    "city": "Rocklin",
    "state": "CA",
    "zip": "95765",
    "phone": "(916) 257-6356",
    "email": "LDAProbateServices@gmail.com",
    "lat": 38.80543,
    "lng": -121.27581
  },
  {
    "name": "Jed Hazeltine",
    "company": "",
    "address": "42725 Fig Street",
    "city": "Murrieta",
    "state": "CA",
    "zip": "92562",
    "phone": "",
    "email": "",
    "lat": 33.55488,
    "lng": -117.26969
  },
  {
    "name": "Paul Helfman",
    "company": "",
    "address": "25950 Acero",
    "city": "Mission Viejo",
    "state": "CA",
    "zip": "92691",
    "phone": "(949) 600-5200",
    "email": "paul@helfmandavis.com",
    "lat": 33.61058,
    "lng": -117.66462
  },
  {
    "name": "Christopher Heller",
    "company": "",
    "address": "Po Box 720026",
    "city": "San Diego",
    "state": "CA",
    "zip": "92172",
    "phone": "",
    "email": "",
    "lat": 32.77961,
    "lng": -117.13547
  },
  {
    "name": "Fareday Hemingway",
    "company": "",
    "address": "3261 N Harbor Blvd Ste B",
    "city": "Fullerton",
    "state": "CA",
    "zip": "92835",
    "phone": "",
    "email": "",
    "lat": 33.90372,
    "lng": -117.91008
  },
  {
    "name": "Clarice Corki Henderson",
    "company": "",
    "address": "PO Box 406",
    "city": "Grover Beach",
    "state": "CA",
    "zip": "93483",
    "phone": "(805) 489-4221",
    "email": "corki@claricehenderson.com",
    "lat": 35.20628,
    "lng": -120.56593
  },
  {
    "name": "Barbara Hendricks",
    "company": "",
    "address": "25 Oriskany Dr",
    "city": "San Mateo",
    "state": "CA",
    "zip": "94402",
    "phone": "(650) 867-7210",
    "email": "barb@hendricksfiduciary.com",
    "lat": 37.5502,
    "lng": -122.33411
  },
  {
    "name": "Alison Henry",
    "company": "",
    "address": "PO Box 1865",
    "city": "La Jolla",
    "state": "CA",
    "zip": "92038",
    "phone": "(858) 335-0853",
    "email": "alisondhenry@gmail.com",
    "lat": 33.11754,
    "lng": -117.07694
  },
  {
    "name": "Christopher Henry",
    "company": "",
    "address": "2075 Pioneer Ct",
    "city": "San Mateo",
    "state": "CA",
    "zip": "94403",
    "phone": "",
    "email": "",
    "lat": 37.5407,
    "lng": -122.30129
  },
  {
    "name": "Ryan Henry",
    "company": "",
    "address": "3288 Adams Ave",
    "city": "San Diego",
    "state": "CA",
    "zip": "92176",
    "phone": "(619) 925-9870",
    "email": "ryan@henryfiduciarygroup.com",
    "lat": 32.77961,
    "lng": -117.13547
  },
  {
    "name": "Nina Herndon",
    "company": "",
    "address": "1801 Murchison Dr",
    "city": "Burlingame",
    "state": "CA",
    "zip": "94010",
    "phone": "(650) 652-5642",
    "email": "Nherndon@sageeldercare.com",
    "lat": 37.57031,
    "lng": -122.36176
  },
  {
    "name": "Bobbi Herrington",
    "company": "",
    "address": "P.O. Box 241",
    "city": "Los Altos",
    "state": "CA",
    "zip": "94023",
    "phone": "",
    "email": "",
    "lat": 37.46667,
    "lng": -122.26536
  },
  {
    "name": "Carol Herrington",
    "company": "",
    "address": "Po Box 1004",
    "city": "Cloverdale",
    "state": "CA",
    "zip": "95425",
    "phone": "",
    "email": "",
    "lat": 38.81911,
    "lng": -123.00741
  },
  {
    "name": "Eric Hersh",
    "company": "",
    "address": "PO Box 700039",
    "city": "San Jose",
    "state": "CA",
    "zip": "95170",
    "phone": "(408) 996-2432",
    "email": "eric@hershassociates.net",
    "lat": 37.31077,
    "lng": -121.85066
  },
  {
    "name": "Matthew Heyberger",
    "company": "",
    "address": "454 Las Gallinas Ave Pmb 274",
    "city": "San Rafael",
    "state": "CA",
    "zip": "94903",
    "phone": "",
    "email": "",
    "lat": 38.02418,
    "lng": -122.55934
  },
  {
    "name": "Jacqueline Hicks",
    "company": "",
    "address": "14414 Oak St",
    "city": "Saratoga",
    "state": "CA",
    "zip": "95070",
    "phone": "",
    "email": "",
    "lat": 37.25799,
    "lng": -122.06045
  },
  {
    "name": "Sandra Hill",
    "company": "",
    "address": "P.O. Box 5086",
    "city": "Hercules",
    "state": "CA",
    "zip": "94547",
    "phone": "",
    "email": "",
    "lat": 38.00912,
    "lng": -122.26513
  },
  {
    "name": "Mary Hill-Melero",
    "company": "",
    "address": "2150 Post St",
    "city": "San Francisco",
    "state": "CA",
    "zip": "94115",
    "phone": "",
    "email": "",
    "lat": 37.78632,
    "lng": -122.43961
  },
  {
    "name": "Annelise Hitchman",
    "company": "",
    "address": "3850 Xenophon St",
    "city": "San Diego",
    "state": "CA",
    "zip": "92107",
    "phone": "",
    "email": "",
    "lat": 32.73672,
    "lng": -117.24201
  },
  {
    "name": "Brett Hitchman",
    "company": "",
    "address": "864 Grand Ave Pmb 109",
    "city": "San Diego",
    "state": "CA",
    "zip": "92109",
    "phone": "",
    "email": "",
    "lat": 32.80312,
    "lng": -117.24128
  },
  {
    "name": "Bruce Hitchman",
    "company": "",
    "address": "4629 Cass St #68",
    "city": "San Diego",
    "state": "CA",
    "zip": "92109",
    "phone": "",
    "email": "",
    "lat": 32.80312,
    "lng": -117.24128
  },
  {
    "name": "Lee Ann Hitchman",
    "company": "",
    "address": "120 Tustin Ave",
    "city": "Newport Beach",
    "state": "CA",
    "zip": "92663",
    "phone": "(949) 200-9712",
    "email": "leeann@hitchmanfiduciaries.com",
    "lat": 33.62526,
    "lng": -117.92759
  },
  {
    "name": "William Hlavaty",
    "company": "",
    "address": "P.O. Box 410621",
    "city": "San Francisco",
    "state": "CA",
    "zip": "94141",
    "phone": "",
    "email": "",
    "lat": 37.7655,
    "lng": -122.42722
  },
  {
    "name": "Jeffrey Hodde",
    "company": "",
    "address": "809 Laurel St",
    "city": "San Carlos",
    "state": "CA",
    "zip": "94070",
    "phone": "(415) 320-1871",
    "email": "jeff@hoddefiduciary.com",
    "lat": 37.49642,
    "lng": -122.27178
  },
  {
    "name": "Scott Hodges",
    "company": "",
    "address": "142 N Cambridge St",
    "city": "Orange",
    "state": "CA",
    "zip": "92866",
    "phone": "",
    "email": "",
    "lat": 33.7807,
    "lng": -117.84437
  },
  {
    "name": "CAROL HOFFMAN",
    "company": "",
    "address": "1510 Walnut St",
    "city": "Berkeley",
    "state": "CA",
    "zip": "94709",
    "phone": "(510) 647-8044",
    "email": "carollaw@sonic.net",
    "lat": 37.88023,
    "lng": -122.26692
  },
  {
    "name": "Kirk Hoffman",
    "company": "",
    "address": "4915 Hidden Dune Court",
    "city": "San Diego",
    "state": "CA",
    "zip": "92130",
    "phone": "",
    "email": "",
    "lat": 32.9582,
    "lng": -117.19494
  },
  {
    "name": "William Hoggan",
    "company": "",
    "address": "PO Box 32103",
    "city": "San Jose",
    "state": "CA",
    "zip": "95152",
    "phone": "(408) 712-9457",
    "email": "willhoggan@gmail.com",
    "lat": 37.31077,
    "lng": -121.85066
  },
  {
    "name": "Philip Holsworth",
    "company": "",
    "address": "951 Old County Rd",
    "city": "Belmont",
    "state": "CA",
    "zip": "94002",
    "phone": "(650) 343-3246",
    "email": "pehworthy14@gmail.com",
    "lat": 37.51469,
    "lng": -122.29128
  },
  {
    "name": "Avery Hom",
    "company": "",
    "address": "145 Corte Madera Town Center #415",
    "city": "Corte Madera",
    "state": "CA",
    "zip": "94925",
    "phone": "",
    "email": "",
    "lat": 37.92581,
    "lng": -122.51083
  },
  {
    "name": "Kendall Homer",
    "company": "",
    "address": "2228 Longport Ct",
    "city": "Elk Grove",
    "state": "CA",
    "zip": "95758",
    "phone": "(916) 686-7804",
    "email": "khomerdmd@aol.com",
    "lat": 38.42723,
    "lng": -121.43801
  },
  {
    "name": "Gregory Honegger",
    "company": "",
    "address": "1027 Santa Rita Rd",
    "city": "Templeton",
    "state": "CA",
    "zip": "93465",
    "phone": "(661) 301-1995",
    "email": "greg@greghonegger.com",
    "lat": 35.54631,
    "lng": -120.71757
  },
  {
    "name": "Bennett Hong",
    "company": "",
    "address": "PO Box 31051",
    "city": "San Francisco",
    "state": "CA",
    "zip": "94131",
    "phone": "(415) 760-1666",
    "email": "bennett@bhongprofiduciary.com",
    "lat": 37.74969,
    "lng": -122.44751
  },
  {
    "name": "Larry Hoover",
    "company": "",
    "address": "8994 Svl Box",
    "city": "Victorville",
    "state": "CA",
    "zip": "92395",
    "phone": "(760) 881-3087",
    "email": "elinelcrat@gmail.com",
    "lat": 34.51598,
    "lng": -117.29127
  },
  {
    "name": "Liza Horvath",
    "company": "",
    "address": "18685 Main St #a608",
    "city": "Huntington Beach",
    "state": "CA",
    "zip": "92648",
    "phone": "",
    "email": "",
    "lat": 33.68262,
    "lng": -118.00616
  },
  {
    "name": "Claudia Hostetter",
    "company": "",
    "address": "P.O. Box 9574",
    "city": "Santa Rosa",
    "state": "CA",
    "zip": "95405",
    "phone": "",
    "email": "",
    "lat": 38.43996,
    "lng": -122.67022
  },
  {
    "name": "Nancy Howland",
    "company": "",
    "address": "18828 Brookhurst St",
    "city": "Fountain Valley",
    "state": "CA",
    "zip": "92708",
    "phone": "(714) 881-4323",
    "email": "nancy@newportfiduciaries.com",
    "lat": 33.72145,
    "lng": -117.94434
  },